{
"type": "FeatureCollection",
"name": "icc-vegabaja",
"crs": { "type": "name", "properties": { "name": "urn:ogc:def:crs:OGC:1.3:CRS84" } },
"features": [
{ "type": "Feature", "properties": { "SECTOR": "Artes Escénicas", "SUBSECTOR": "Música", "FASE": 2017.0, "MUNICIPIO": "Albatera", "NOMBEMPRES": "On Time 2017 Sl.", "CFORM": 0, "CPROD": 1, "CCONS": 1, "CDIFU": 1, "CTOTAL": 3 }, "geometry": { "type": "Point", "coordinates": [ -0.873807999998793, 38.183282300917043, 0.0 ] } },
{ "type": "Feature", "properties": { "SECTOR": "Artes Escénicas", "SUBSECTOR": "Música", "FASE": 1928.0, "MUNICIPIO": "Albatera", "NOMBEMPRES": "Asoc Escuela De Musica La Aurora De Albatera", "CFORM": 1, "CPROD": 1, "CCONS": 0, "CDIFU": 1, "CTOTAL": 3 }, "geometry": { "type": "Point", "coordinates": [ -0.876016499998796, 38.183922300917075, 0.0 ] } },
{ "type": "Feature", "properties": { "SECTOR": "Artes Escénicas", "SUBSECTOR": "Música", "FASE": 2009.0, "MUNICIPIO": "Albatera", "NOMBEMPRES": "Asoc Musical Santiago Apostol De Albatera", "CFORM": 1, "CPROD": 1, "CCONS": 0, "CDIFU": 1, "CTOTAL": 3 }, "geometry": { "type": "Point", "coordinates": [ -0.871898799998786, 38.179449300917035, 0.0 ] } },
{ "type": "Feature", "properties": { "SECTOR": "Artes Escénicas", "SUBSECTOR": "Música", "FASE": 2013.0, "MUNICIPIO": "Albatera", "NOMBEMPRES": "Asoc Musico Cultural Santiago Apostol De Albatera", "CFORM": 1, "CPROD": 1, "CCONS": 0, "CDIFU": 1, "CTOTAL": 3 }, "geometry": { "type": "Point", "coordinates": [ -0.871898799998786, 38.179449300917035, 0.0 ] } },
{ "type": "Feature", "properties": { "SECTOR": "Artes Escénicas", "SUBSECTOR": "Música", "FASE": 1965.0, "MUNICIPIO": "Almoradí", "NOMBEMPRES": "Union Musical De Almoradi", "CFORM": 1, "CPROD": 1, "CCONS": 0, "CDIFU": 1, "CTOTAL": 3 }, "geometry": { "type": "Point", "coordinates": [ -0.799447699998509, 38.106386800916439, 0.0 ] } },
{ "type": "Feature", "properties": { "SECTOR": "Artes Escénicas", "SUBSECTOR": "Música", "FASE": 1991.0, "MUNICIPIO": "Almoradí", "NOMBEMPRES": "Apodosi Sl", "CFORM": 0, "CPROD": 0, "CCONS": 1, "CDIFU": 0, "CTOTAL": 1 }, "geometry": { "type": "Point", "coordinates": [ -0.790680399998423, 38.107985700916451, 0.0 ] } },
{ "type": "Feature", "properties": { "SECTOR": "Artes Escénicas", "SUBSECTOR": "Música", "FASE": 1966.0, "MUNICIPIO": "Benejúzar", "NOMBEMPRES": "Centro Artistico Union Musical De Benejuzar", "CFORM": 1, "CPROD": 1, "CCONS": 0, "CDIFU": 1, "CTOTAL": 3 }, "geometry": { "type": "Point", "coordinates": [ -0.838590999998656, 38.079143000916247, 0.0 ] } },
{ "type": "Feature", "properties": { "SECTOR": "Artes Escénicas", "SUBSECTOR": "Música", "FASE": 1987.0, "MUNICIPIO": "Bigastro", "NOMBEMPRES": "Union Musical De Bigastro", "CFORM": 1, "CPROD": 1, "CCONS": 0, "CDIFU": 1, "CTOTAL": 3 }, "geometry": { "type": "Point", "coordinates": [ -0.897581599998898, 38.063086400916106, 0.0 ] } },
{ "type": "Feature", "properties": { "SECTOR": "Artes Escénicas", "SUBSECTOR": "Baile, danza y ballet", "FASE": 2005.0, "MUNICIPIO": "Bigastro", "NOMBEMPRES": "Yanoinma Mtro Sl", "CFORM": 0, "CPROD": 0, "CCONS": 1, "CDIFU": 0, "CTOTAL": 1 }, "geometry": { "type": "Point", "coordinates": [ -0.894048699998848, 38.06396400091613, 0.0 ] } },
{ "type": "Feature", "properties": { "SECTOR": "Artes Escénicas", "SUBSECTOR": "Baile, danza y ballet", "FASE": 2015.0, "MUNICIPIO": "Bigastro", "NOMBEMPRES": "Sala Delta Ensayos C.b.", "CFORM": 0, "CPROD": 1, "CCONS": 1, "CDIFU": 0, "CTOTAL": 2 }, "geometry": { "type": "Point", "coordinates": [ -0.892632799998859, 38.061759700916092, 0.0 ] } },
{ "type": "Feature", "properties": { "SECTOR": "Artes Escénicas", "SUBSECTOR": "Música", "FASE": 2014.0, "MUNICIPIO": "Bigastro", "NOMBEMPRES": "Music Is My Life Sl.", "CFORM": 0, "CPROD": 0, "CCONS": 1, "CDIFU": 0, "CTOTAL": 1 }, "geometry": { "type": "Point", "coordinates": [ -0.88395609999886, 38.061606200916103, 0.0 ] } },
{ "type": "Feature", "properties": { "SECTOR": "Artes Escénicas", "SUBSECTOR": "Música", "FASE": 1982.0, "MUNICIPIO": "Callosa de Segura", "NOMBEMPRES": "Sociedad De Arte Musical La Filarmonica", "CFORM": 1, "CPROD": 1, "CCONS": 1, "CDIFU": 1, "CTOTAL": 4 }, "geometry": { "type": "Point", "coordinates": [ -0.878099699998817, 38.125364300916623, 0.0 ] } },
{ "type": "Feature", "properties": { "SECTOR": "Artes Escénicas", "SUBSECTOR": "Música", "FASE": 2011.0, "MUNICIPIO": "Callosa de Segura", "NOMBEMPRES": "Asoc Orquesta Academica Virgen De La Luz De Callos", "CFORM": 1, "CPROD": 1, "CCONS": 0, "CDIFU": 1, "CTOTAL": 3 }, "geometry": { "type": "Point", "coordinates": [ -0.87318559999879, 38.125571700916645, 0.0 ] } },
{ "type": "Feature", "properties": { "SECTOR": "Artes Escénicas", "SUBSECTOR": "Música", "FASE": 1981.0, "MUNICIPIO": "Catral", "NOMBEMPRES": "Sociedad Union Musical La Constancia De Catral", "CFORM": 1, "CPROD": 1, "CCONS": 0, "CDIFU": 1, "CTOTAL": 3 }, "geometry": { "type": "Point", "coordinates": [ -0.804276099998487, 38.159692600916877, 0.0 ] } },
{ "type": "Feature", "properties": { "SECTOR": "Artes Escénicas", "SUBSECTOR": "Música", "FASE": 2002.0, "MUNICIPIO": "Cox", "NOMBEMPRES": "Escuela De Musica Antonio Quirante", "CFORM": 1, "CPROD": 1, "CCONS": 0, "CDIFU": 1, "CTOTAL": 3 }, "geometry": { "type": "Point", "coordinates": [ -0.88423659999884, 38.142627400916737, 0.0 ] } },
{ "type": "Feature", "properties": { "SECTOR": "Artes Escénicas", "SUBSECTOR": "Música", "FASE": 2002.0, "MUNICIPIO": "Daya Nueva", "NOMBEMPRES": "Rodrigo Escuela De Musica Maestro", "CFORM": 1, "CPROD": 0, "CCONS": 0, "CDIFU": 0, "CTOTAL": 1 }, "geometry": { "type": "Point", "coordinates": [ -0.764932599998321, 38.115870200916554, 0.0 ] } },
{ "type": "Feature", "properties": { "SECTOR": "Artes Escénicas", "SUBSECTOR": "Música", "FASE": 2017.0, "MUNICIPIO": "Daya Nueva", "NOMBEMPRES": "Immo Estates Belgium Sl.", "CFORM": 0, "CPROD": 1, "CCONS": 1, "CDIFU": 1, "CTOTAL": 3 }, "geometry": { "type": "Point", "coordinates": [ -0.759484899998301, 38.111694800916517, 0.0 ] } },
{ "type": "Feature", "properties": { "SECTOR": "Artes Escénicas", "SUBSECTOR": "Música", "FASE": 1976.0, "MUNICIPIO": "Dolores", "NOMBEMPRES": "Union Musical De Dolores", "CFORM": 1, "CPROD": 1, "CCONS": 0, "CDIFU": 1, "CTOTAL": 3 }, "geometry": { "type": "Point", "coordinates": [ -0.77038779999838, 38.137612100916726, 0.0 ] } },
{ "type": "Feature", "properties": { "SECTOR": "Artes Escénicas", "SUBSECTOR": "Baile, danza y ballet", "FASE": 2016.0, "MUNICIPIO": "Guardamar del Segura", "NOMBEMPRES": "Anaiz Dance Sl.", "CFORM": 0, "CPROD": 0, "CCONS": 1, "CDIFU": 1, "CTOTAL": 2 }, "geometry": { "type": "Point", "coordinates": [ -0.672088299997756, 38.090558300916342, 0.0 ] } },
{ "type": "Feature", "properties": { "SECTOR": "Artes Escénicas", "SUBSECTOR": "Música", "FASE": 2008.0, "MUNICIPIO": "Guardamar del Segura", "NOMBEMPRES": "Sanctuary Logistica Sl", "CFORM": 0, "CPROD": 0, "CCONS": 0, "CDIFU": 1, "CTOTAL": 1 }, "geometry": { "type": "Point", "coordinates": [ -0.654449799997663, 38.089719100916284, 0.0 ] } },
{ "type": "Feature", "properties": { "SECTOR": "Artes Escénicas", "SUBSECTOR": "Música", "FASE": 2010.0, "MUNICIPIO": "Jacarilla", "NOMBEMPRES": "Globalplay Entertainment Sl.", "CFORM": 0, "CPROD": 0, "CCONS": 0, "CDIFU": 1, "CTOTAL": 1 }, "geometry": { "type": "Point", "coordinates": [ -0.864688099998776, 38.059144200916094, 0.0 ] } },
{ "type": "Feature", "properties": { "SECTOR": "Artes Escénicas", "SUBSECTOR": "Música", "FASE": 2013.0, "MUNICIPIO": "Orihuela", "NOMBEMPRES": "Asoc Musical Primo Tempo De Orihuela", "CFORM": 1, "CPROD": 1, "CCONS": 0, "CDIFU": 1, "CTOTAL": 3 }, "geometry": { "type": "Point", "coordinates": [ -0.938855399999037, 38.085461200916299, 0.0 ] } },
{ "type": "Feature", "properties": { "SECTOR": "Artes Escénicas", "SUBSECTOR": "Música", "FASE": 2012.0, "MUNICIPIO": "Orihuela", "NOMBEMPRES": "A. P. A. Conservatorio Profesional De Musica De Or", "CFORM": 1, "CPROD": 1, "CCONS": 0, "CDIFU": 1, "CTOTAL": 3 }, "geometry": { "type": "Point", "coordinates": [ -0.94583329999904, 38.087116400916344, 0.0 ] } },
{ "type": "Feature", "properties": { "SECTOR": "Artes Escénicas", "SUBSECTOR": "Baile, danza y ballet", "FASE": 2015.0, "MUNICIPIO": "Orihuela", "NOMBEMPRES": "Asoc Cultural Amigos De La Musica Y La Danza De Or", "CFORM": 1, "CPROD": 1, "CCONS": 0, "CDIFU": 1, "CTOTAL": 3 }, "geometry": { "type": "Point", "coordinates": [ -0.949691699999064, 38.083471800916257, 0.0 ] } },
{ "type": "Feature", "properties": { "SECTOR": "Artes Escénicas", "SUBSECTOR": "Música", "FASE": 2016.0, "MUNICIPIO": "Orihuela", "NOMBEMPRES": "Asoc Cultural Orquesta Ciudad De Orihuela", "CFORM": 1, "CPROD": 1, "CCONS": 0, "CDIFU": 1, "CTOTAL": 3 }, "geometry": { "type": "Point", "coordinates": [ -0.94433109999903, 38.080186000916235, 0.0 ] } },
{ "type": "Feature", "properties": { "SECTOR": "Artes Escénicas", "SUBSECTOR": "Teatro", "FASE": 2008.0, "MUNICIPIO": "Orihuela", "NOMBEMPRES": "Asoc Socio Cultural Al De S.a.l.", "CFORM": 1, "CPROD": 1, "CCONS": 0, "CDIFU": 1, "CTOTAL": 3 }, "geometry": { "type": "Point", "coordinates": [ -0.94605879999904, 38.086361900916302, 0.0 ] } },
{ "type": "Feature", "properties": { "SECTOR": "Artes Escénicas", "SUBSECTOR": "Música", "FASE": 2017.0, "MUNICIPIO": "Orihuela", "NOMBEMPRES": "Radioactividad Sonora Sl.", "CFORM": 0, "CPROD": 1, "CCONS": 0, "CDIFU": 0, "CTOTAL": 1 }, "geometry": { "type": "Point", "coordinates": [ -0.948360399999057, 38.081995000916265, 0.0 ] } },
{ "type": "Feature", "properties": { "SECTOR": "Artes Escénicas", "SUBSECTOR": "Baile, danza y ballet", "FASE": 1996.0, "MUNICIPIO": "Orihuela", "NOMBEMPRES": "Orihuela Cultural S.l.", "CFORM": 0, "CPROD": 0, "CCONS": 0, "CDIFU": 1, "CTOTAL": 1 }, "geometry": { "type": "Point", "coordinates": [ -0.949864399999073, 38.08578100091632, 0.0 ] } },
{ "type": "Feature", "properties": { "SECTOR": "Artes Escénicas", "SUBSECTOR": "Música", "FASE": 2018.0, "MUNICIPIO": "Orihuela", "NOMBEMPRES": "Eveniments J & R Sl.", "CFORM": 0, "CPROD": 0, "CCONS": 1, "CDIFU": 1, "CTOTAL": 2 }, "geometry": { "type": "Point", "coordinates": [ -0.94794029999907, 38.085255800916279, 0.0 ] } },
{ "type": "Feature", "properties": { "SECTOR": "Artes Escénicas", "SUBSECTOR": "Música", "FASE": 2014.0, "MUNICIPIO": "Rafal", "NOMBEMPRES": "Escuela De Musica Arte Musical De Rafal", "CFORM": 1, "CPROD": 1, "CCONS": 0, "CDIFU": 1, "CTOTAL": 3 }, "geometry": { "type": "Point", "coordinates": [ -0.850094999998708, 38.103591100916447, 0.0 ] } },
{ "type": "Feature", "properties": { "SECTOR": "Artes Escénicas", "SUBSECTOR": "Teatro", "FASE": 2016.0, "MUNICIPIO": "Rafal", "NOMBEMPRES": "Teatro Atra De Rafal", "CFORM": 1, "CPROD": 1, "CCONS": 1, "CDIFU": 1, "CTOTAL": 4 }, "geometry": { "type": "Point", "coordinates": [ -0.849776099998683, 38.103668800916424, 0.0 ] } },
{ "type": "Feature", "properties": { "SECTOR": "Artes Escénicas", "SUBSECTOR": "Música", "FASE": 1988.0, "MUNICIPIO": "Redován", "NOMBEMPRES": "Union Musical De Redovan", "CFORM": 1, "CPROD": 1, "CCONS": 0, "CDIFU": 1, "CTOTAL": 3 }, "geometry": { "type": "Point", "coordinates": [ -0.907718699998947, 38.114130100916555, 0.0 ] } },
{ "type": "Feature", "properties": { "SECTOR": "Artes Escénicas", "SUBSECTOR": "Música", "FASE": 1984.0, "MUNICIPIO": "Rojales", "NOMBEMPRES": "Banda De Musica Santa Cecilia De Rojales", "CFORM": 1, "CPROD": 1, "CCONS": 0, "CDIFU": 1, "CTOTAL": 3 }, "geometry": { "type": "Point", "coordinates": [ -0.725000999998115, 38.086862600916334, 0.0 ] } },
{ "type": "Feature", "properties": { "SECTOR": "Artes Escénicas", "SUBSECTOR": "Música", "FASE": 1867.0, "MUNICIPIO": "Rojales", "NOMBEMPRES": "Banda De Musica La Lira De Rojales", "CFORM": 1, "CPROD": 1, "CCONS": 0, "CDIFU": 1, "CTOTAL": 3 }, "geometry": { "type": "Point", "coordinates": [ -0.72339459999809, 38.089125500916346, 0.0 ] } },
{ "type": "Feature", "properties": { "SECTOR": "Artes Escénicas", "SUBSECTOR": "Teatro", "FASE": 2009.0, "MUNICIPIO": "Rojales", "NOMBEMPRES": "Asoc Cultural Licencia Dramatica Dramatic Licence", "CFORM": 1, "CPROD": 1, "CCONS": 0, "CDIFU": 1, "CTOTAL": 3 }, "geometry": { "type": "Point", "coordinates": [ -0.720953799998087, 38.073063200916174, 0.0 ] } },
{ "type": "Feature", "properties": { "SECTOR": "Artes Escénicas", "SUBSECTOR": "Baile, danza y ballet", "FASE": 2013.0, "MUNICIPIO": "Rojales", "NOMBEMPRES": "La Luna De Africa Danza Y Percusion Africanas", "CFORM": 1, "CPROD": 1, "CCONS": 0, "CDIFU": 1, "CTOTAL": 3 }, "geometry": { "type": "Point", "coordinates": [ -0.72219799999807, 38.0865010009163, 0.0 ] } },
{ "type": "Feature", "properties": { "SECTOR": "Artes Escénicas", "SUBSECTOR": "Música", "FASE": 1983.0, "MUNICIPIO": "San Fulgencio", "NOMBEMPRES": "Fulgencio Union Musical De San", "CFORM": 1, "CPROD": 1, "CCONS": 0, "CDIFU": 1, "CTOTAL": 3 }, "geometry": { "type": "Point", "coordinates": [ -0.719021099998082, 38.114337500916506, 0.0 ] } },
{ "type": "Feature", "properties": { "SECTOR": "Artes Escénicas", "SUBSECTOR": "Ópera", "FASE": 2013.0, "MUNICIPIO": "San Fulgencio", "NOMBEMPRES": "Coro Voces Del Mediterraneo", "CFORM": 1, "CPROD": 1, "CCONS": 0, "CDIFU": 1, "CTOTAL": 3 }, "geometry": { "type": "Point", "coordinates": [ -0.672720999997806, 38.133665000916693, 0.0 ] } },
{ "type": "Feature", "properties": { "SECTOR": "Artes Escénicas", "SUBSECTOR": "Baile, danza y ballet", "FASE": 2016.0, "MUNICIPIO": "Torrevieja", "NOMBEMPRES": "Factor Novator Sl.", "CFORM": 1, "CPROD": 0, "CCONS": 0, "CDIFU": 0, "CTOTAL": 1 }, "geometry": { "type": "Point", "coordinates": [ -0.677275499997797, 37.981254500915462, 0.0 ] } },
{ "type": "Feature", "properties": { "SECTOR": "Artes Escénicas", "SUBSECTOR": "Baile, danza y ballet", "FASE": 2015.0, "MUNICIPIO": "Torrevieja", "NOMBEMPRES": "Escuela De Baile Paya's Sl.", "CFORM": 1, "CPROD": 0, "CCONS": 0, "CDIFU": 0, "CTOTAL": 1 }, "geometry": { "type": "Point", "coordinates": [ -0.690144799997857, 37.978445800915431, 0.0 ] } },
{ "type": "Feature", "properties": { "SECTOR": "Artes Escénicas", "SUBSECTOR": "Música", "FASE": 1978.0, "MUNICIPIO": "Torrevieja", "NOMBEMPRES": "Union Musical Torrevejense", "CFORM": 1, "CPROD": 1, "CCONS": 0, "CDIFU": 1, "CTOTAL": 3 }, "geometry": { "type": "Point", "coordinates": [ -0.680248299997827, 37.979307700915449, 0.0 ] } },
{ "type": "Feature", "properties": { "SECTOR": "Artes Escénicas", "SUBSECTOR": "Ópera", "FASE": 2013.0, "MUNICIPIO": "Torrevieja", "NOMBEMPRES": "Jose Hodar Masa Coral", "CFORM": 1, "CPROD": 0, "CCONS": 0, "CDIFU": 1, "CTOTAL": 2 }, "geometry": { "type": "Point", "coordinates": [ -0.686693099997863, 37.979420700915448, 0.0 ] } },
{ "type": "Feature", "properties": { "SECTOR": "Artes Escénicas", "SUBSECTOR": "Ópera", "FASE": 1899.0, "MUNICIPIO": "Torrevieja", "NOMBEMPRES": "Junta Mayor De Cofradias De Semana Santa De Torrevieja", "CFORM": 1, "CPROD": 1, "CCONS": 0, "CDIFU": 1, "CTOTAL": 3 }, "geometry": { "type": "Point", "coordinates": [ -0.683243399997866, 37.977354400915402, 0.0 ] } },
{ "type": "Feature", "properties": { "SECTOR": "Artes Escénicas", "SUBSECTOR": "Música", "FASE": 2013.0, "MUNICIPIO": "Torrevieja", "NOMBEMPRES": "Gaex Grupo De Amigos Ex Adictos", "CFORM": 1, "CPROD": 1, "CCONS": 0, "CDIFU": 0, "CTOTAL": 2 }, "geometry": { "type": "Point", "coordinates": [ -0.688197399997896, 37.978420800915437, 0.0 ] } },
{ "type": "Feature", "properties": { "SECTOR": "Artes Escénicas", "SUBSECTOR": "Música", "FASE": 2013.0, "MUNICIPIO": "Torrevieja", "NOMBEMPRES": "Asoc El Nuevo Amanecer De Torrelamata", "CFORM": 1, "CPROD": 1, "CCONS": 0, "CDIFU": 0, "CTOTAL": 2 }, "geometry": { "type": "Point", "coordinates": [ -0.653000299997667, 38.027557800915851, 0.0 ] } },
{ "type": "Feature", "properties": { "SECTOR": "Artes Escénicas", "SUBSECTOR": "Teatro", "FASE": 2016.0, "MUNICIPIO": "Torrevieja", "NOMBEMPRES": "Asoc La Cueva De Melpomone", "CFORM": 1, "CPROD": 1, "CCONS": 1, "CDIFU": 1, "CTOTAL": 4 }, "geometry": { "type": "Point", "coordinates": [ -0.691099799997896, 37.976215600915431, 0.0 ] } },
{ "type": "Feature", "properties": { "SECTOR": "Artes Escénicas", "SUBSECTOR": "Teatro", "FASE": 2015.0, "MUNICIPIO": "Torrevieja", "NOMBEMPRES": "Infernales Puntocom", "CFORM": 1, "CPROD": 1, "CCONS": 1, "CDIFU": 1, "CTOTAL": 4 }, "geometry": { "type": "Point", "coordinates": [ -0.686372999997853, 37.981827700915474, 0.0 ] } },
{ "type": "Feature", "properties": { "SECTOR": "Artes Escénicas", "SUBSECTOR": "Música", "FASE": 2015.0, "MUNICIPIO": "Torrevieja", "NOMBEMPRES": "Coral Nueva Generacion", "CFORM": 1, "CPROD": 1, "CCONS": 0, "CDIFU": 1, "CTOTAL": 3 }, "geometry": { "type": "Point", "coordinates": [ -0.667663599997754, 37.981757000915508, 0.0 ] } },
{ "type": "Feature", "properties": { "SECTOR": "Artes Escénicas", "SUBSECTOR": "Música", "FASE": 2015.0, "MUNICIPIO": "Torrevieja", "NOMBEMPRES": "Renacimiento Cultural Torrejoven", "CFORM": 1, "CPROD": 1, "CCONS": 0, "CDIFU": 0, "CTOTAL": 2 }, "geometry": { "type": "Point", "coordinates": [ -0.689719499997894, 37.98034170091546, 0.0 ] } },
{ "type": "Feature", "properties": { "SECTOR": "Artes Escénicas", "SUBSECTOR": "Ópera", "FASE": 2015.0, "MUNICIPIO": "Torrevieja", "NOMBEMPRES": "Asoc Coro Alba Rociera", "CFORM": 1, "CPROD": 1, "CCONS": 0, "CDIFU": 1, "CTOTAL": 3 }, "geometry": { "type": "Point", "coordinates": [ -0.685529699997861, 37.977860800915423, 0.0 ] } },
{ "type": "Feature", "properties": { "SECTOR": "Artes Escénicas", "SUBSECTOR": "Teatro", "FASE": 2016.0, "MUNICIPIO": "Torrevieja", "NOMBEMPRES": "Asoc Johanneses Factotum", "CFORM": 1, "CPROD": 1, "CCONS": 0, "CDIFU": 1, "CTOTAL": 3 }, "geometry": { "type": "Point", "coordinates": [ -0.67876369999779, 37.977456400915443, 0.0 ] } },
{ "type": "Feature", "properties": { "SECTOR": "Artes Escénicas", "SUBSECTOR": "Ópera", "FASE": 1984.0, "MUNICIPIO": "Torrevieja", "NOMBEMPRES": "Coral Torrevejense Francisco Vallejos De Torrevieja", "CFORM": 1, "CPROD": 1, "CCONS": 0, "CDIFU": 1, "CTOTAL": 3 }, "geometry": { "type": "Point", "coordinates": [ -0.681613699997833, 37.978782100915438, 0.0 ] } },
{ "type": "Feature", "properties": { "SECTOR": "Artes Escénicas", "SUBSECTOR": "Música", "FASE": 2013.0, "MUNICIPIO": "Torrevieja", "NOMBEMPRES": "Mad Men Rock C.b.", "CFORM": 0, "CPROD": 0, "CCONS": 1, "CDIFU": 1, "CTOTAL": 2 }, "geometry": { "type": "Point", "coordinates": [ -0.695562799997913, 37.987040900915524, 0.0 ] } },
{ "type": "Feature", "properties": { "SECTOR": "Artes Escénicas", "SUBSECTOR": "Música", "FASE": 2008.0, "MUNICIPIO": "Torrevieja", "NOMBEMPRES": "Black Ink Producciones C.b.", "CFORM": 0, "CPROD": 1, "CCONS": 1, "CDIFU": 0, "CTOTAL": 2 }, "geometry": { "type": "Point", "coordinates": [ -0.678689099997785, 37.978774700915444, 0.0 ] } },
{ "type": "Feature", "properties": { "SECTOR": "Artes Escénicas", "SUBSECTOR": "Música", "FASE": 1996.0, "MUNICIPIO": "Torrevieja", "NOMBEMPRES": "Discoteca Zoo Sl", "CFORM": 0, "CPROD": 0, "CCONS": 1, "CDIFU": 0, "CTOTAL": 1 }, "geometry": { "type": "Point", "coordinates": [ -0.652973299997621, 38.02686130091584, 0.0 ] } },
{ "type": "Feature", "properties": { "SECTOR": "Artes Escénicas", "SUBSECTOR": "Música", "FASE": 2016.0, "MUNICIPIO": "Torrevieja", "NOMBEMPRES": "Behind The Music Events Sl.", "CFORM": 0, "CPROD": 0, "CCONS": 1, "CDIFU": 1, "CTOTAL": 2 }, "geometry": { "type": "Point", "coordinates": [ -0.68043209999783, 37.98405000091546, 0.0 ] } },
{ "type": "Feature", "properties": { "SECTOR": "Artes Escénicas", "SUBSECTOR": "Música", "FASE": 2018.0, "MUNICIPIO": "Torrevieja", "NOMBEMPRES": "Cocomun Sl.", "CFORM": 1, "CPROD": 0, "CCONS": 0, "CDIFU": 0, "CTOTAL": 1 }, "geometry": { "type": "Point", "coordinates": [ -0.680056499997845, 37.980805700915475, 0.0 ] } },
{ "type": "Feature", "properties": { "SECTOR": "Diseño", "SUBSECTOR": "Fotografía y arte digital", "FASE": 2003.0, "MUNICIPIO": "Albatera", "NOMBEMPRES": "Peñaranda Fotografia C.b.", "CFORM": 0, "CPROD": 1, "CCONS": 1, "CDIFU": 0, "CTOTAL": 2 }, "geometry": { "type": "Point", "coordinates": [ -0.872114599998822, 38.179028200917031, 0.0 ] } },
{ "type": "Feature", "properties": { "SECTOR": "Artes Visuales", "SUBSECTOR": "Fotografía y arte digital", "FASE": 2004.0, "MUNICIPIO": "Almoradí", "NOMBEMPRES": "Fotofeed Sl", "CFORM": 0, "CPROD": 1, "CCONS": 0, "CDIFU": 0, "CTOTAL": 1 }, "geometry": { "type": "Point", "coordinates": [ -0.790363299998461, 38.109127400916456, 0.0 ] } },
{ "type": "Feature", "properties": { "SECTOR": "Artes Visuales", "SUBSECTOR": "Fotografía y arte digital", "FASE": 2008.0, "MUNICIPIO": "Cox", "NOMBEMPRES": "Lr Stylo Fotografos C.b.", "CFORM": 0, "CPROD": 1, "CCONS": 0, "CDIFU": 0, "CTOTAL": 1 }, "geometry": { "type": "Point", "coordinates": [ -0.885418099998819, 38.142867500916758, 0.0 ] } },
{ "type": "Feature", "properties": { "SECTOR": "Artes Visuales", "SUBSECTOR": "Fotografía y arte digital", "FASE": 2009.0, "MUNICIPIO": "Orihuela", "NOMBEMPRES": "Antonio Loino Fotografos S.c.", "CFORM": 0, "CPROD": 1, "CCONS": 0, "CDIFU": 0, "CTOTAL": 1 }, "geometry": { "type": "Point", "coordinates": [ -0.947225299999053, 38.082498800916291, 0.0 ] } },
{ "type": "Feature", "properties": { "SECTOR": "Artes Visuales", "SUBSECTOR": "Fotografía y arte digital", "FASE": 2015.0, "MUNICIPIO": "Orihuela", "NOMBEMPRES": "Tipos Servicios Fotograficos C.b.", "CFORM": 0, "CPROD": 1, "CCONS": 0, "CDIFU": 0, "CTOTAL": 1 }, "geometry": { "type": "Point", "coordinates": [ -0.940667799999047, 38.08607060091628, 0.0 ] } },
{ "type": "Feature", "properties": { "SECTOR": "Artes Visuales", "SUBSECTOR": "Fotografía y arte digital", "FASE": 2012.0, "MUNICIPIO": "Orihuela", "NOMBEMPRES": "Tragaluz Fotografas S.c.", "CFORM": 0, "CPROD": 1, "CCONS": 0, "CDIFU": 0, "CTOTAL": 1 }, "geometry": { "type": "Point", "coordinates": [ -0.944643199999062, 38.082898200916269, 0.0 ] } },
{ "type": "Feature", "properties": { "SECTOR": "Artes Visuales", "SUBSECTOR": "Fotografía y arte digital", "FASE": 2012.0, "MUNICIPIO": "Orihuela", "NOMBEMPRES": "Loino Press S.c.", "CFORM": 0, "CPROD": 1, "CCONS": 0, "CDIFU": 0, "CTOTAL": 1 }, "geometry": { "type": "Point", "coordinates": [ -0.947221799999063, 38.082503900916301, 0.0 ] } },
{ "type": "Feature", "properties": { "SECTOR": "Artes Visuales", "SUBSECTOR": "Fotografía y arte digital", "FASE": 2013.0, "MUNICIPIO": "Orihuela", "NOMBEMPRES": "The Photo Lounge Costa Blanca Sl.", "CFORM": 0, "CPROD": 1, "CCONS": 1, "CDIFU": 0, "CTOTAL": 2 }, "geometry": { "type": "Point", "coordinates": [ -0.752468599998214, 37.939137800915105, 0.0 ] } },
{ "type": "Feature", "properties": { "SECTOR": "Artes Visuales", "SUBSECTOR": "Artes plásticas", "FASE": 2018.0, "MUNICIPIO": "Orihuela", "NOMBEMPRES": "Jaloe Art Sl.", "CFORM": 0, "CPROD": 1, "CCONS": 1, "CDIFU": 1, "CTOTAL": 3 }, "geometry": { "type": "Point", "coordinates": [ -0.727212599998119, 37.932969000915122, 0.0 ] } },
{ "type": "Feature", "properties": { "SECTOR": "Artes Visuales", "SUBSECTOR": "Fotografía y arte digital", "FASE": 1995.0, "MUNICIPIO": "Rojales", "NOMBEMPRES": "Foto Araez S.l.", "CFORM": 0, "CPROD": 1, "CCONS": 0, "CDIFU": 0, "CTOTAL": 1 }, "geometry": { "type": "Point", "coordinates": [ -0.724555599998121, 38.088866400916295, 0.0 ] } },
{ "type": "Feature", "properties": { "SECTOR": "Artes Visuales", "SUBSECTOR": "Fotografía y arte digital", "FASE": 1993.0, "MUNICIPIO": "Torrevieja", "NOMBEMPRES": "Fotos Torrevieja Imagen Sl", "CFORM": 0, "CPROD": 0, "CCONS": 1, "CDIFU": 0, "CTOTAL": 1 }, "geometry": { "type": "Point", "coordinates": [ -0.684497999997856, 37.977163000915475, 0.0 ] } },
{ "type": "Feature", "properties": { "SECTOR": "Diseño", "SUBSECTOR": "Arquitectura", "FASE": 2014.0, "MUNICIPIO": "Albatera", "NOMBEMPRES": "Grupo Zeta Ingenieria Y Arquitectura Sociedad Civil Profesional.", "CFORM": 0, "CPROD": 1, "CCONS": 0, "CDIFU": 0, "CTOTAL": 1 }, "geometry": { "type": "Point", "coordinates": [ -0.869503299998799, 38.182717700917088, 0.0 ] } },
{ "type": "Feature", "properties": { "SECTOR": "Diseño", "SUBSECTOR": "Arquitectura", "FASE": 2014.0, "MUNICIPIO": "Albatera", "NOMBEMPRES": "Arvum Agriculture & Engineering Sl.", "CFORM": 0, "CPROD": 1, "CCONS": 0, "CDIFU": 0, "CTOTAL": 1 }, "geometry": { "type": "Point", "coordinates": [ -0.869503299998799, 38.182717700917088, 0.0 ] } },
{ "type": "Feature", "properties": { "SECTOR": "Diseño", "SUBSECTOR": "Diseño gráfico", "FASE": 2002.0, "MUNICIPIO": "Albatera", "NOMBEMPRES": "Imprenta Pemar S.c.", "CFORM": 0, "CPROD": 1, "CCONS": 0, "CDIFU": 0, "CTOTAL": 1 }, "geometry": { "type": "Point", "coordinates": [ -0.870830999998795, 38.177323300917017, 0.0 ] } },
{ "type": "Feature", "properties": { "SECTOR": "Diseño", "SUBSECTOR": "Diseño gráfico", "FASE": 2016.0, "MUNICIPIO": "Algorfa", "NOMBEMPRES": "Andujar Copisteria E Impresion Sl.", "CFORM": 0, "CPROD": 1, "CCONS": 0, "CDIFU": 0, "CTOTAL": 1 }, "geometry": { "type": "Point", "coordinates": [ -0.796636799998451, 38.087560000916334, 0.0 ] } },
{ "type": "Feature", "properties": { "SECTOR": "Diseño", "SUBSECTOR": "Diseño gráfico", "FASE": 2013.0, "MUNICIPIO": "Almoradí", "NOMBEMPRES": "Espateria Grupo Sl.", "CFORM": 0, "CPROD": 1, "CCONS": 1, "CDIFU": 0, "CTOTAL": 2 }, "geometry": { "type": "Point", "coordinates": [ -0.803141399998511, 38.099727000916388, 0.0 ] } },
{ "type": "Feature", "properties": { "SECTOR": "Diseño", "SUBSECTOR": "Diseño gráfico", "FASE": 1996.0, "MUNICIPIO": "Almoradí", "NOMBEMPRES": "Rotulos Tin-tas Sl", "CFORM": 0, "CPROD": 1, "CCONS": 0, "CDIFU": 0, "CTOTAL": 1 }, "geometry": { "type": "Point", "coordinates": [ -0.793469799998477, 38.110749200916494, 0.0 ] } },
{ "type": "Feature", "properties": { "SECTOR": "Diseño", "SUBSECTOR": "Diseño gráfico", "FASE": 1995.0, "MUNICIPIO": "Almoradí", "NOMBEMPRES": "Aldograf Sl", "CFORM": 0, "CPROD": 1, "CCONS": 1, "CDIFU": 0, "CTOTAL": 2 }, "geometry": { "type": "Point", "coordinates": [ -0.787104399998453, 38.109144900916483, 0.0 ] } },
{ "type": "Feature", "properties": { "SECTOR": "Diseño", "SUBSECTOR": "Diseño gráfico", "FASE": 1995.0, "MUNICIPIO": "Almoradí", "NOMBEMPRES": "Graficas Ruype Sl.", "CFORM": 0, "CPROD": 1, "CCONS": 0, "CDIFU": 0, "CTOTAL": 1 }, "geometry": { "type": "Point", "coordinates": [ -0.807171999998551, 38.098356200916399, 0.0 ] } },
{ "type": "Feature", "properties": { "SECTOR": "Diseño", "SUBSECTOR": "Diseño gráfico", "FASE": 1994.0, "MUNICIPIO": "Almoradí", "NOMBEMPRES": "Ediciones Gutierrez Sl", "CFORM": 0, "CPROD": 1, "CCONS": 0, "CDIFU": 0, "CTOTAL": 1 }, "geometry": { "type": "Point", "coordinates": [ -0.788518499998438, 38.109691100916514, 0.0 ] } },
{ "type": "Feature", "properties": { "SECTOR": "Diseño", "SUBSECTOR": "Diseño gráfico", "FASE": 1978.0, "MUNICIPIO": "Almoradí", "NOMBEMPRES": "Edijar Sa", "CFORM": 0, "CPROD": 1, "CCONS": 1, "CDIFU": 0, "CTOTAL": 2 }, "geometry": { "type": "Point", "coordinates": [ -0.796506899998461, 38.097744800916381, 0.0 ] } },
{ "type": "Feature", "properties": { "SECTOR": "Diseño", "SUBSECTOR": "Joyería", "FASE": 2009.0, "MUNICIPIO": "Almoradí", "NOMBEMPRES": "Sucesores De Mendoza En La Vega Sll", "CFORM": 0, "CPROD": 0, "CCONS": 1, "CDIFU": 0, "CTOTAL": 1 }, "geometry": { "type": "Point", "coordinates": [ -0.79083249999846, 38.109807900916508, 0.0 ] } },
{ "type": "Feature", "properties": { "SECTOR": "Diseño", "SUBSECTOR": "Joyería", "FASE": 1998.0, "MUNICIPIO": "Almoradí", "NOMBEMPRES": "Minguez-joya Sl", "CFORM": 0, "CPROD": 0, "CCONS": 1, "CDIFU": 0, "CTOTAL": 1 }, "geometry": { "type": "Point", "coordinates": [ -0.792555299998451, 38.109312600916482, 0.0 ] } },
{ "type": "Feature", "properties": { "SECTOR": "Diseño", "SUBSECTOR": "Arquitectura", "FASE": 2004.0, "MUNICIPIO": "Almoradí", "NOMBEMPRES": "Mica Arquitectura Slp", "CFORM": 0, "CPROD": 1, "CCONS": 0, "CDIFU": 0, "CTOTAL": 1 }, "geometry": { "type": "Point", "coordinates": [ -0.791053799998426, 38.109669200916471, 0.0 ] } },
{ "type": "Feature", "properties": { "SECTOR": "Diseño", "SUBSECTOR": "Arquitectura", "FASE": 2003.0, "MUNICIPIO": "Almoradí", "NOMBEMPRES": "Manuel Simon Y Asociados Sl.", "CFORM": 0, "CPROD": 1, "CCONS": 0, "CDIFU": 0, "CTOTAL": 1 }, "geometry": { "type": "Point", "coordinates": [ -0.786943899998403, 38.111429200916469, 0.0 ] } },
{ "type": "Feature", "properties": { "SECTOR": "Diseño", "SUBSECTOR": "Arquitectura", "FASE": 2014.0, "MUNICIPIO": "Almoradí", "NOMBEMPRES": "Arkam 2014 Sl.", "CFORM": 0, "CPROD": 1, "CCONS": 0, "CDIFU": 0, "CTOTAL": 1 }, "geometry": { "type": "Point", "coordinates": [ -0.783629599998389, 38.113217200916509, 0.0 ] } },
{ "type": "Feature", "properties": { "SECTOR": "Diseño", "SUBSECTOR": "Arquitectura", "FASE": 2003.0, "MUNICIPIO": "Almoradí", "NOMBEMPRES": "Fco Follana Aparejadores Slp", "CFORM": 0, "CPROD": 1, "CCONS": 0, "CDIFU": 0, "CTOTAL": 1 }, "geometry": { "type": "Point", "coordinates": [ -0.786892799998451, 38.111488500916522, 0.0 ] } },
{ "type": "Feature", "properties": { "SECTOR": "Diseño", "SUBSECTOR": "Arquitectura", "FASE": 2005.0, "MUNICIPIO": "Almoradí", "NOMBEMPRES": "Vilella-soriano Arquitectura Slp", "CFORM": 0, "CPROD": 1, "CCONS": 0, "CDIFU": 0, "CTOTAL": 1 }, "geometry": { "type": "Point", "coordinates": [ -0.79156729999844, 38.109932900916462, 0.0 ] } },
{ "type": "Feature", "properties": { "SECTOR": "Diseño", "SUBSECTOR": "Arquitectura", "FASE": 2002.0, "MUNICIPIO": "Almoradí", "NOMBEMPRES": "Inprocivil Sl", "CFORM": 0, "CPROD": 1, "CCONS": 0, "CDIFU": 0, "CTOTAL": 1 }, "geometry": { "type": "Point", "coordinates": [ -0.795890399998481, 38.107517200916504, 0.0 ] } },
{ "type": "Feature", "properties": { "SECTOR": "Diseño", "SUBSECTOR": "Arquitectura", "FASE": 2018.0, "MUNICIPIO": "Almoradí", "NOMBEMPRES": "Efisystem Project Sl.", "CFORM": 0, "CPROD": 1, "CCONS": 0, "CDIFU": 0, "CTOTAL": 1 }, "geometry": { "type": "Point", "coordinates": [ -0.786943899998403, 38.111429200916469, 0.0 ] } },
{ "type": "Feature", "properties": { "SECTOR": "Diseño", "SUBSECTOR": "Arquitectura", "FASE": 2017.0, "MUNICIPIO": "Almoradí", "NOMBEMPRES": "Habitecnos Project Sl.", "CFORM": 0, "CPROD": 1, "CCONS": 0, "CDIFU": 0, "CTOTAL": 1 }, "geometry": { "type": "Point", "coordinates": [ -0.786971299998425, 38.111418200916503, 0.0 ] } },
{ "type": "Feature", "properties": { "SECTOR": "Diseño", "SUBSECTOR": "Arquitectura", "FASE": 2007.0, "MUNICIPIO": "Almoradí", "NOMBEMPRES": "Qubex Arquitectura Slp", "CFORM": 0, "CPROD": 1, "CCONS": 0, "CDIFU": 0, "CTOTAL": 1 }, "geometry": { "type": "Point", "coordinates": [ -0.792564699998458, 38.082121800916255, 0.0 ] } },
{ "type": "Feature", "properties": { "SECTOR": "Diseño", "SUBSECTOR": "Arquitectura", "FASE": 2012.0, "MUNICIPIO": "Benferri", "NOMBEMPRES": "Orihuela Costa Law Services Sl.", "CFORM": 0, "CPROD": 1, "CCONS": 0, "CDIFU": 0, "CTOTAL": 1 }, "geometry": { "type": "Point", "coordinates": [ -0.963668399999109, 38.146164300916794, 0.0 ] } },
{ "type": "Feature", "properties": { "SECTOR": "Diseño", "SUBSECTOR": "Arquitectura", "FASE": 2005.0, "MUNICIPIO": "Benijófar", "NOMBEMPRES": "Marais Arquitectura S.l.", "CFORM": 0, "CPROD": 1, "CCONS": 0, "CDIFU": 0, "CTOTAL": 1 }, "geometry": { "type": "Point", "coordinates": [ -0.738060799998194, 38.078251900916243, 0.0 ] } },
{ "type": "Feature", "properties": { "SECTOR": "Diseño", "SUBSECTOR": "Diseño gráfico", "FASE": 2008.0, "MUNICIPIO": "Bigastro", "NOMBEMPRES": "Ingenia Avanzada Sl", "CFORM": 0, "CPROD": 1, "CCONS": 0, "CDIFU": 0, "CTOTAL": 1 }, "geometry": { "type": "Point", "coordinates": [ -0.900757299998897, 38.062981900916142, 0.0 ] } },
{ "type": "Feature", "properties": { "SECTOR": "Diseño", "SUBSECTOR": "Diseño gráfico", "FASE": 2012.0, "MUNICIPIO": "Bigastro", "NOMBEMPRES": "Diseños Roan Sl.", "CFORM": 0, "CPROD": 1, "CCONS": 0, "CDIFU": 0, "CTOTAL": 1 }, "geometry": { "type": "Point", "coordinates": [ -0.882733199998838, 38.058528200916115, 0.0 ] } },
{ "type": "Feature", "properties": { "SECTOR": "Diseño", "SUBSECTOR": "Arquitectura", "FASE": 2000.0, "MUNICIPIO": "Bigastro", "NOMBEMPRES": "Boureau Arquitectura Y Gestion Slp", "CFORM": 0, "CPROD": 1, "CCONS": 0, "CDIFU": 0, "CTOTAL": 1 }, "geometry": { "type": "Point", "coordinates": [ -0.89326889999887, 38.061199200916093, 0.0 ] } },
{ "type": "Feature", "properties": { "SECTOR": "Diseño", "SUBSECTOR": "Arquitectura", "FASE": 2003.0, "MUNICIPIO": "Bigastro", "NOMBEMPRES": "Vrp Arquitectura Slp", "CFORM": 0, "CPROD": 1, "CCONS": 0, "CDIFU": 0, "CTOTAL": 1 }, "geometry": { "type": "Point", "coordinates": [ -0.89466129999886, 38.06281330091614, 0.0 ] } },
{ "type": "Feature", "properties": { "SECTOR": "Diseño", "SUBSECTOR": "Arquitectura", "FASE": 2017.0, "MUNICIPIO": "Bigastro", "NOMBEMPRES": "Grau Roch Arquitectura Y Urbanismo Slp.", "CFORM": 0, "CPROD": 1, "CCONS": 0, "CDIFU": 0, "CTOTAL": 1 }, "geometry": { "type": "Point", "coordinates": [ -0.895805599998886, 38.062294000916125, 0.0 ] } },
{ "type": "Feature", "properties": { "SECTOR": "Diseño", "SUBSECTOR": "Diseño de modas", "FASE": 2011.0, "MUNICIPIO": "Bigastro", "NOMBEMPRES": "Dakara Formacion Sl.", "CFORM": 1, "CPROD": 1, "CCONS": 1, "CDIFU": 1, "CTOTAL": 4 }, "geometry": { "type": "Point", "coordinates": [ -0.886516799998816, 38.057448500916095, 0.0 ] } },
{ "type": "Feature", "properties": { "SECTOR": "Diseño", "SUBSECTOR": "Diseño gráfico", "FASE": 1986.0, "MUNICIPIO": "Callosa de Segura", "NOMBEMPRES": "Cardogri Sl", "CFORM": 0, "CPROD": 1, "CCONS": 0, "CDIFU": 0, "CTOTAL": 1 }, "geometry": { "type": "Point", "coordinates": [ -0.87848119999882, 38.12579260091664, 0.0 ] } },
{ "type": "Feature", "properties": { "SECTOR": "Diseño", "SUBSECTOR": "Diseño gráfico", "FASE": 1994.0, "MUNICIPIO": "Callosa de Segura", "NOMBEMPRES": "Beneyte Hijos Sl", "CFORM": 0, "CPROD": 1, "CCONS": 0, "CDIFU": 0, "CTOTAL": 1 }, "geometry": { "type": "Point", "coordinates": [ -0.879557399998824, 38.124496400916605, 0.0 ] } },
{ "type": "Feature", "properties": { "SECTOR": "Diseño", "SUBSECTOR": "Diseño gráfico", "FASE": 2017.0, "MUNICIPIO": "Callosa de Segura", "NOMBEMPRES": "Mistral Grafics Sl.", "CFORM": 0, "CPROD": 1, "CCONS": 0, "CDIFU": 0, "CTOTAL": 1 }, "geometry": { "type": "Point", "coordinates": [ -0.879326999998802, 38.1225880009166, 0.0 ] } },
{ "type": "Feature", "properties": { "SECTOR": "Diseño", "SUBSECTOR": "Diseño gráfico", "FASE": 2003.0, "MUNICIPIO": "Callosa de Segura", "NOMBEMPRES": "Cromo-system Servicios Graficos Sl", "CFORM": 0, "CPROD": 1, "CCONS": 1, "CDIFU": 0, "CTOTAL": 2 }, "geometry": { "type": "Point", "coordinates": [ -0.879390399998847, 38.122583100916586, 0.0 ] } },
{ "type": "Feature", "properties": { "SECTOR": "Diseño", "SUBSECTOR": "Joyería", "FASE": 1995.0, "MUNICIPIO": "Callosa de Segura", "NOMBEMPRES": "Conchita Y Finita Sl", "CFORM": 0, "CPROD": 0, "CCONS": 1, "CDIFU": 0, "CTOTAL": 1 }, "geometry": { "type": "Point", "coordinates": [ -0.879470499998838, 38.124834900916596, 0.0 ] } },
{ "type": "Feature", "properties": { "SECTOR": "Diseño", "SUBSECTOR": "Joyería", "FASE": 1993.0, "MUNICIPIO": "Callosa de Segura", "NOMBEMPRES": "Oro Y Hora Mora Sl", "CFORM": 0, "CPROD": 1, "CCONS": 1, "CDIFU": 0, "CTOTAL": 2 }, "geometry": { "type": "Point", "coordinates": [ -0.878201999998796, 38.124162500916611, 0.0 ] } },
{ "type": "Feature", "properties": { "SECTOR": "Diseño", "SUBSECTOR": "Arquitectura", "FASE": 1988.0, "MUNICIPIO": "Callosa de Segura", "NOMBEMPRES": "Estudios Y Proyectos M Y M Sl", "CFORM": 0, "CPROD": 1, "CCONS": 0, "CDIFU": 0, "CTOTAL": 1 }, "geometry": { "type": "Point", "coordinates": [ -0.877696199998811, 38.124268800916603, 0.0 ] } },
{ "type": "Feature", "properties": { "SECTOR": "Diseño", "SUBSECTOR": "Arquitectura", "FASE": 2002.0, "MUNICIPIO": "Callosa de Segura", "NOMBEMPRES": "Cimbra Arquitectura E Ingenieria C.b.", "CFORM": 0, "CPROD": 1, "CCONS": 0, "CDIFU": 0, "CTOTAL": 1 }, "geometry": { "type": "Point", "coordinates": [ -0.877470299998834, 38.124620300916625, 0.0 ] } },
{ "type": "Feature", "properties": { "SECTOR": "Diseño", "SUBSECTOR": "Arquitectura", "FASE": 2015.0, "MUNICIPIO": "Callosa de Segura", "NOMBEMPRES": "D. 7. Arquitectura C.b.", "CFORM": 0, "CPROD": 1, "CCONS": 0, "CDIFU": 0, "CTOTAL": 1 }, "geometry": { "type": "Point", "coordinates": [ -0.876771499998823, 38.130505300916639, 0.0 ] } },
{ "type": "Feature", "properties": { "SECTOR": "Diseño", "SUBSECTOR": "Diseño gráfico", "FASE": 2007.0, "MUNICIPIO": "Catral", "NOMBEMPRES": "Neri-plast S.l.", "CFORM": 0, "CPROD": 1, "CCONS": 0, "CDIFU": 0, "CTOTAL": 1 }, "geometry": { "type": "Point", "coordinates": [ -0.802526799998508, 38.169165800916943, 0.0 ] } },
{ "type": "Feature", "properties": { "SECTOR": "Diseño", "SUBSECTOR": "Arquitectura", "FASE": 2006.0, "MUNICIPIO": "Catral", "NOMBEMPRES": "Saez Arquitectura Tecnica Slp", "CFORM": 0, "CPROD": 1, "CCONS": 0, "CDIFU": 0, "CTOTAL": 1 }, "geometry": { "type": "Point", "coordinates": [ -0.80322609999852, 38.166777700916931, 0.0 ] } },
{ "type": "Feature", "properties": { "SECTOR": "Diseño", "SUBSECTOR": "Arquitectura", "FASE": 2008.0, "MUNICIPIO": "Daya Vieja", "NOMBEMPRES": "A J Arquitectura 2008 Sl", "CFORM": 0, "CPROD": 1, "CCONS": 0, "CDIFU": 0, "CTOTAL": 1 }, "geometry": { "type": "Point", "coordinates": [ -0.738114299998176, 38.104640700916455, 0.0 ] } },
{ "type": "Feature", "properties": { "SECTOR": "Diseño", "SUBSECTOR": "Arquitectura", "FASE": 2015.0, "MUNICIPIO": "Dolores", "NOMBEMPRES": "Habitat Ingenieros C.b.", "CFORM": 0, "CPROD": 1, "CCONS": 0, "CDIFU": 0, "CTOTAL": 1 }, "geometry": { "type": "Point", "coordinates": [ -0.773689199998393, 38.139655400916702, 0.0 ] } },
{ "type": "Feature", "properties": { "SECTOR": "Diseño", "SUBSECTOR": "Arquitectura", "FASE": 2006.0, "MUNICIPIO": "Formentera del Segura", "NOMBEMPRES": "Protecnicos Gonzalez Espinosa Slp", "CFORM": 0, "CPROD": 1, "CCONS": 0, "CDIFU": 0, "CTOTAL": 1 }, "geometry": { "type": "Point", "coordinates": [ -0.727168899998088, 38.088225000916339, 0.0 ] } },
{ "type": "Feature", "properties": { "SECTOR": "Diseño", "SUBSECTOR": "Arquitectura", "FASE": 1999.0, "MUNICIPIO": "Formentera del Segura", "NOMBEMPRES": "Gestion Tecnica De Proyectos Y Obras Sl", "CFORM": 0, "CPROD": 1, "CCONS": 0, "CDIFU": 0, "CTOTAL": 1 }, "geometry": { "type": "Point", "coordinates": [ -0.736954399998161, 38.088287600916331, 0.0 ] } },
{ "type": "Feature", "properties": { "SECTOR": "Diseño", "SUBSECTOR": "Arquitectura", "FASE": 2017.0, "MUNICIPIO": "Formentera del Segura", "NOMBEMPRES": "Gestec. Arquitectura&ingenieria Sl.", "CFORM": 0, "CPROD": 1, "CCONS": 0, "CDIFU": 0, "CTOTAL": 1 }, "geometry": { "type": "Point", "coordinates": [ -0.73853629999819, 38.087637800916312, 0.0 ] } },
{ "type": "Feature", "properties": { "SECTOR": "Diseño", "SUBSECTOR": "Arquitectura", "FASE": 2003.0, "MUNICIPIO": "Granja de Rocamora", "NOMBEMPRES": "Javier Mora Arquitectura Slp", "CFORM": 0, "CPROD": 1, "CCONS": 0, "CDIFU": 0, "CTOTAL": 1 }, "geometry": { "type": "Point", "coordinates": [ -0.890577099998886, 38.150942700916787, 0.0 ] } },
{ "type": "Feature", "properties": { "SECTOR": "Diseño", "SUBSECTOR": "Diseño gráfico", "FASE": 1990.0, "MUNICIPIO": "Guardamar del Segura", "NOMBEMPRES": "Graficas Guardamar Sl", "CFORM": 0, "CPROD": 1, "CCONS": 0, "CDIFU": 0, "CTOTAL": 1 }, "geometry": { "type": "Point", "coordinates": [ -0.656756899997676, 38.09439270091638, 0.0 ] } },
{ "type": "Feature", "properties": { "SECTOR": "Diseño", "SUBSECTOR": "Diseño gráfico", "FASE": 1994.0, "MUNICIPIO": "Guardamar del Segura", "NOMBEMPRES": "Imprenta Guardamar Sl", "CFORM": 0, "CPROD": 1, "CCONS": 0, "CDIFU": 0, "CTOTAL": 1 }, "geometry": { "type": "Point", "coordinates": [ -0.6567516999977, 38.094391600916346, 0.0 ] } },
{ "type": "Feature", "properties": { "SECTOR": "Diseño", "SUBSECTOR": "Diseño gráfico", "FASE": 2014.0, "MUNICIPIO": "Guardamar del Segura", "NOMBEMPRES": "La Vieja Familia Sl.", "CFORM": 0, "CPROD": 1, "CCONS": 0, "CDIFU": 0, "CTOTAL": 1 }, "geometry": { "type": "Point", "coordinates": [ -0.653886899997682, 38.087560600916333, 0.0 ] } },
{ "type": "Feature", "properties": { "SECTOR": "Diseño", "SUBSECTOR": "Diseño gráfico", "FASE": 2017.0, "MUNICIPIO": "Guardamar del Segura", "NOMBEMPRES": "Print Art Regalos Personalizados Sl.", "CFORM": 0, "CPROD": 1, "CCONS": 1, "CDIFU": 1, "CTOTAL": 3 }, "geometry": { "type": "Point", "coordinates": [ -0.655279899997643, 38.092254200916351, 0.0 ] } },
{ "type": "Feature", "properties": { "SECTOR": "Diseño", "SUBSECTOR": "Diseño gráfico", "FASE": 2003.0, "MUNICIPIO": "Guardamar del Segura", "NOMBEMPRES": "De Andres Graficas Guardamar Sll", "CFORM": 0, "CPROD": 1, "CCONS": 0, "CDIFU": 0, "CTOTAL": 1 }, "geometry": { "type": "Point", "coordinates": [ -0.655860999997679, 38.091475700916334, 0.0 ] } },
{ "type": "Feature", "properties": { "SECTOR": "Diseño", "SUBSECTOR": "Diseño gráfico", "FASE": 2010.0, "MUNICIPIO": "Guardamar del Segura", "NOMBEMPRES": "Rotulos Dama De Guardamar Sl", "CFORM": 0, "CPROD": 1, "CCONS": 0, "CDIFU": 0, "CTOTAL": 1 }, "geometry": { "type": "Point", "coordinates": [ -0.662197999997696, 38.091419500916317, 0.0 ] } },
{ "type": "Feature", "properties": { "SECTOR": "Diseño", "SUBSECTOR": "Diseño gráfico", "FASE": 2011.0, "MUNICIPIO": "Guardamar del Segura", "NOMBEMPRES": "Couche Creativos Sl.", "CFORM": 0, "CPROD": 1, "CCONS": 0, "CDIFU": 0, "CTOTAL": 1 }, "geometry": { "type": "Point", "coordinates": [ -0.655077799997673, 38.089563900916296, 0.0 ] } },
{ "type": "Feature", "properties": { "SECTOR": "Diseño", "SUBSECTOR": "Arquitectura", "FASE": 2007.0, "MUNICIPIO": "Guardamar del Segura", "NOMBEMPRES": "Adda Arquitectura Slp", "CFORM": 0, "CPROD": 1, "CCONS": 0, "CDIFU": 0, "CTOTAL": 1 }, "geometry": { "type": "Point", "coordinates": [ -0.653666999997634, 38.090722800916318, 0.0 ] } },
{ "type": "Feature", "properties": { "SECTOR": "Diseño", "SUBSECTOR": "Arquitectura", "FASE": 1999.0, "MUNICIPIO": "Guardamar del Segura", "NOMBEMPRES": "Alone Proyectos De Arquitectura Sl", "CFORM": 0, "CPROD": 1, "CCONS": 0, "CDIFU": 0, "CTOTAL": 1 }, "geometry": { "type": "Point", "coordinates": [ -0.655556299997662, 38.089722800916348, 0.0 ] } },
{ "type": "Feature", "properties": { "SECTOR": "Diseño", "SUBSECTOR": "Arquitectura", "FASE": 2000.0, "MUNICIPIO": "Guardamar del Segura", "NOMBEMPRES": "Juan Amores Romero Slp", "CFORM": 0, "CPROD": 1, "CCONS": 0, "CDIFU": 0, "CTOTAL": 1 }, "geometry": { "type": "Point", "coordinates": [ -0.655363299997693, 38.082779000916311, 0.0 ] } },
{ "type": "Feature", "properties": { "SECTOR": "Diseño", "SUBSECTOR": "Diseño de interiores", "FASE": 2015.0, "MUNICIPIO": "Guardamar del Segura", "NOMBEMPRES": "Decoraciones Negri Sl.", "CFORM": 0, "CPROD": 1, "CCONS": 0, "CDIFU": 0, "CTOTAL": 1 }, "geometry": { "type": "Point", "coordinates": [ -0.672083299997769, 38.090597100916298, 0.0 ] } },
{ "type": "Feature", "properties": { "SECTOR": "Diseño", "SUBSECTOR": "Diseño de interiores", "FASE": 2014.0, "MUNICIPIO": "Los Montesinos", "NOMBEMPRES": "Jardin Smart Sl.", "CFORM": 0, "CPROD": 1, "CCONS": 0, "CDIFU": 0, "CTOTAL": 1 }, "geometry": { "type": "Point", "coordinates": [ -0.746122099998242, 38.035843300915928, 0.0 ] } },
{ "type": "Feature", "properties": { "SECTOR": "Diseño", "SUBSECTOR": "Arquitectura", "FASE": 2006.0, "MUNICIPIO": "Los Montesinos", "NOMBEMPRES": "Proytec Ingenieros Montesinos Sl", "CFORM": 0, "CPROD": 1, "CCONS": 0, "CDIFU": 0, "CTOTAL": 1 }, "geometry": { "type": "Point", "coordinates": [ -0.745939999998221, 38.027683200915853, 0.0 ] } },
{ "type": "Feature", "properties": { "SECTOR": "Diseño", "SUBSECTOR": "Diseño de modas", "FASE": 2001.0, "MUNICIPIO": "Orihuela", "NOMBEMPRES": "Aparados Calpena Sl", "CFORM": 0, "CPROD": 1, "CCONS": 0, "CDIFU": 0, "CTOTAL": 1 }, "geometry": { "type": "Point", "coordinates": [ -0.908146499998899, 38.081043400916258, 0.0 ] } },
{ "type": "Feature", "properties": { "SECTOR": "Diseño", "SUBSECTOR": "Diseño de modas", "FASE": 2002.0, "MUNICIPIO": "Orihuela", "NOMBEMPRES": "Proyecto Moda Vilella S.l.", "CFORM": 0, "CPROD": 1, "CCONS": 1, "CDIFU": 0, "CTOTAL": 2 }, "geometry": { "type": "Point", "coordinates": [ -0.90814389999894, 38.081145600916287, 0.0 ] } },
{ "type": "Feature", "properties": { "SECTOR": "Diseño", "SUBSECTOR": "Diseño gráfico", "FASE": 2014.0, "MUNICIPIO": "Orihuela", "NOMBEMPRES": "Interkul Europa Sl.", "CFORM": 0, "CPROD": 1, "CCONS": 1, "CDIFU": 0, "CTOTAL": 2 }, "geometry": { "type": "Point", "coordinates": [ -0.943652299999025, 38.079483700916235, 0.0 ] } },
{ "type": "Feature", "properties": { "SECTOR": "Diseño", "SUBSECTOR": "Diseño gráfico", "FASE": 2002.0, "MUNICIPIO": "Orihuela", "NOMBEMPRES": "Editorial Partenope Sl", "CFORM": 0, "CPROD": 1, "CCONS": 1, "CDIFU": 0, "CTOTAL": 2 }, "geometry": { "type": "Point", "coordinates": [ -0.945082799999055, 38.078699800916247, 0.0 ] } },
{ "type": "Feature", "properties": { "SECTOR": "Diseño", "SUBSECTOR": "Diseño gráfico", "FASE": 1996.0, "MUNICIPIO": "Orihuela", "NOMBEMPRES": "Fotocopias Campus Ii Sl", "CFORM": 0, "CPROD": 1, "CCONS": 1, "CDIFU": 0, "CTOTAL": 2 }, "geometry": { "type": "Point", "coordinates": [ -0.945059799999057, 38.078894000916243, 0.0 ] } },
{ "type": "Feature", "properties": { "SECTOR": "Diseño", "SUBSECTOR": "Diseño gráfico", "FASE": 1997.0, "MUNICIPIO": "Orihuela", "NOMBEMPRES": "Antonio Diaz Esteban Y Otra C.b.", "CFORM": 0, "CPROD": 1, "CCONS": 0, "CDIFU": 0, "CTOTAL": 1 }, "geometry": { "type": "Point", "coordinates": [ -0.991507599999201, 38.078223800916241, 0.0 ] } },
{ "type": "Feature", "properties": { "SECTOR": "Diseño", "SUBSECTOR": "Diseño gráfico", "FASE": 2015.0, "MUNICIPIO": "Orihuela", "NOMBEMPRES": "Ecotoner Impresores Sl.", "CFORM": 0, "CPROD": 1, "CCONS": 1, "CDIFU": 0, "CTOTAL": 2 }, "geometry": { "type": "Point", "coordinates": [ -0.935021699998994, 38.087049300916306, 0.0 ] } },
{ "type": "Feature", "properties": { "SECTOR": "Diseño", "SUBSECTOR": "Diseño gráfico", "FASE": 1991.0, "MUNICIPIO": "Orihuela", "NOMBEMPRES": "Onda Grafica Sl", "CFORM": 0, "CPROD": 1, "CCONS": 0, "CDIFU": 0, "CTOTAL": 1 }, "geometry": { "type": "Point", "coordinates": [ -0.948494599999046, 38.079321800916262, 0.0 ] } },
{ "type": "Feature", "properties": { "SECTOR": "Diseño", "SUBSECTOR": "Diseño gráfico", "FASE": 1985.0, "MUNICIPIO": "Orihuela", "NOMBEMPRES": "Imprenta Oriolana Minerva Sl", "CFORM": 0, "CPROD": 1, "CCONS": 0, "CDIFU": 0, "CTOTAL": 1 }, "geometry": { "type": "Point", "coordinates": [ -0.940647699999019, 38.086649100916297, 0.0 ] } },
{ "type": "Feature", "properties": { "SECTOR": "Diseño", "SUBSECTOR": "Diseño gráfico", "FASE": 2005.0, "MUNICIPIO": "Orihuela", "NOMBEMPRES": "Rotulos Jose Sl.", "CFORM": 0, "CPROD": 1, "CCONS": 0, "CDIFU": 0, "CTOTAL": 1 }, "geometry": { "type": "Point", "coordinates": [ -0.931732399998979, 38.108825300916472, 0.0 ] } },
{ "type": "Feature", "properties": { "SECTOR": "Diseño", "SUBSECTOR": "Joyería", "FASE": 2015.0, "MUNICIPIO": "Orihuela", "NOMBEMPRES": "Vende Tu Oro En Orihuela Sl.", "CFORM": 0, "CPROD": 0, "CCONS": 1, "CDIFU": 1, "CTOTAL": 2 }, "geometry": { "type": "Point", "coordinates": [ -0.948939799999049, 38.08533700091629, 0.0 ] } },
{ "type": "Feature", "properties": { "SECTOR": "Diseño", "SUBSECTOR": "Joyería", "FASE": 2016.0, "MUNICIPIO": "Orihuela", "NOMBEMPRES": "La Ponderosa Jewellers And Gifts Sl.", "CFORM": 0, "CPROD": 0, "CCONS": 1, "CDIFU": 1, "CTOTAL": 2 }, "geometry": { "type": "Point", "coordinates": [ -0.944950799999049, 38.081747100916246, 0.0 ] } },
{ "type": "Feature", "properties": { "SECTOR": "Diseño", "SUBSECTOR": "Joyería", "FASE": 2018.0, "MUNICIPIO": "Orihuela", "NOMBEMPRES": "Diamap Jewels Sl.", "CFORM": 0, "CPROD": 0, "CCONS": 1, "CDIFU": 0, "CTOTAL": 1 }, "geometry": { "type": "Point", "coordinates": [ -0.725224999998101, 37.931860400915099, 0.0 ] } },
{ "type": "Feature", "properties": { "SECTOR": "Diseño", "SUBSECTOR": "Joyería", "FASE": 1998.0, "MUNICIPIO": "Orihuela", "NOMBEMPRES": "Patrimonial Torres Lucas Sl", "CFORM": 0, "CPROD": 0, "CCONS": 1, "CDIFU": 0, "CTOTAL": 1 }, "geometry": { "type": "Point", "coordinates": [ -0.947230999999028, 38.085315900916328, 0.0 ] } },
{ "type": "Feature", "properties": { "SECTOR": "Diseño", "SUBSECTOR": "Joyería", "FASE": 2016.0, "MUNICIPIO": "Orihuela", "NOMBEMPRES": "Always My Way Sl.", "CFORM": 0, "CPROD": 0, "CCONS": 1, "CDIFU": 0, "CTOTAL": 1 }, "geometry": { "type": "Point", "coordinates": [ -0.721424199998057, 37.938150700915138, 0.0 ] } },
{ "type": "Feature", "properties": { "SECTOR": "Diseño", "SUBSECTOR": "Joyería", "FASE": 2011.0, "MUNICIPIO": "Orihuela", "NOMBEMPRES": "Ceziol Biometrics Sl", "CFORM": 0, "CPROD": 0, "CCONS": 1, "CDIFU": 0, "CTOTAL": 1 }, "geometry": { "type": "Point", "coordinates": [ -0.755007699998261, 37.90485510091488, 0.0 ] } },
{ "type": "Feature", "properties": { "SECTOR": "Diseño", "SUBSECTOR": "Joyería", "FASE": 2014.0, "MUNICIPIO": "Orihuela", "NOMBEMPRES": "Divajewels Sl.", "CFORM": 0, "CPROD": 0, "CCONS": 1, "CDIFU": 0, "CTOTAL": 1 }, "geometry": { "type": "Point", "coordinates": [ -0.94646319999902, 38.084311100916281, 0.0 ] } },
{ "type": "Feature", "properties": { "SECTOR": "Diseño", "SUBSECTOR": "Joyería", "FASE": 1995.0, "MUNICIPIO": "Orihuela", "NOMBEMPRES": "Esalri Sal", "CFORM": 0, "CPROD": 0, "CCONS": 1, "CDIFU": 0, "CTOTAL": 1 }, "geometry": { "type": "Point", "coordinates": [ -0.942612099999045, 38.083198000916262, 0.0 ] } },
{ "type": "Feature", "properties": { "SECTOR": "Diseño", "SUBSECTOR": "Arquitectura", "FASE": 2015.0, "MUNICIPIO": "Orihuela", "NOMBEMPRES": "Azida Lar C.b.", "CFORM": 0, "CPROD": 1, "CCONS": 0, "CDIFU": 0, "CTOTAL": 1 }, "geometry": { "type": "Point", "coordinates": [ -0.943195199999019, 38.083611900916281, 0.0 ] } },
{ "type": "Feature", "properties": { "SECTOR": "Diseño", "SUBSECTOR": "Arquitectura", "FASE": 2003.0, "MUNICIPIO": "Orihuela", "NOMBEMPRES": "Glodaro Sl", "CFORM": 0, "CPROD": 1, "CCONS": 0, "CDIFU": 0, "CTOTAL": 1 }, "geometry": { "type": "Point", "coordinates": [ -0.942422299999058, 38.081840500916293, 0.0 ] } },
{ "type": "Feature", "properties": { "SECTOR": "Diseño", "SUBSECTOR": "Arquitectura", "FASE": 2005.0, "MUNICIPIO": "Orihuela", "NOMBEMPRES": "Monteagudo Arquitectos Slp", "CFORM": 0, "CPROD": 1, "CCONS": 0, "CDIFU": 0, "CTOTAL": 1 }, "geometry": { "type": "Point", "coordinates": [ -0.751047599998209, 37.902287900914814, 0.0 ] } },
{ "type": "Feature", "properties": { "SECTOR": "Diseño", "SUBSECTOR": "Arquitectura", "FASE": 2003.0, "MUNICIPIO": "Orihuela", "NOMBEMPRES": "Glodaro Sl", "CFORM": 0, "CPROD": 1, "CCONS": 0, "CDIFU": 0, "CTOTAL": 1 }, "geometry": { "type": "Point", "coordinates": [ -0.942423899999018, 38.08183390091628, 0.0 ] } },
{ "type": "Feature", "properties": { "SECTOR": "Diseño", "SUBSECTOR": "Arquitectura", "FASE": 2017.0, "MUNICIPIO": "Orihuela", "NOMBEMPRES": "Azida Lar Slp.", "CFORM": 0, "CPROD": 1, "CCONS": 0, "CDIFU": 0, "CTOTAL": 1 }, "geometry": { "type": "Point", "coordinates": [ -0.943278999999046, 38.08349990091628, 0.0 ] } },
{ "type": "Feature", "properties": { "SECTOR": "Diseño", "SUBSECTOR": "Arquitectura", "FASE": 2018.0, "MUNICIPIO": "Orihuela", "NOMBEMPRES": "Pm2 Design Architecture Slp.", "CFORM": 0, "CPROD": 1, "CCONS": 0, "CDIFU": 0, "CTOTAL": 1 }, "geometry": { "type": "Point", "coordinates": [ -0.945168099999023, 38.079505100916258, 0.0 ] } },
{ "type": "Feature", "properties": { "SECTOR": "Diseño", "SUBSECTOR": "Arquitectura", "FASE": 2018.0, "MUNICIPIO": "Orihuela", "NOMBEMPRES": "Cutillas Miralles Slp.", "CFORM": 0, "CPROD": 1, "CCONS": 0, "CDIFU": 0, "CTOTAL": 1 }, "geometry": { "type": "Point", "coordinates": [ -0.95122219999907, 38.081471500916294, 0.0 ] } },
{ "type": "Feature", "properties": { "SECTOR": "Diseño", "SUBSECTOR": "Arquitectura", "FASE": 1995.0, "MUNICIPIO": "Orihuela", "NOMBEMPRES": "Estudio Tecnico Dp Sl", "CFORM": 0, "CPROD": 1, "CCONS": 0, "CDIFU": 0, "CTOTAL": 1 }, "geometry": { "type": "Point", "coordinates": [ -0.944913999999016, 38.078198000916224, 0.0 ] } },
{ "type": "Feature", "properties": { "SECTOR": "Diseño", "SUBSECTOR": "Arquitectura", "FASE": 2007.0, "MUNICIPIO": "Orihuela", "NOMBEMPRES": "Francisco Javier Cases Mas Slp", "CFORM": 0, "CPROD": 1, "CCONS": 0, "CDIFU": 0, "CTOTAL": 1 }, "geometry": { "type": "Point", "coordinates": [ -0.947956199999063, 38.083348700916282, 0.0 ] } },
{ "type": "Feature", "properties": { "SECTOR": "Diseño", "SUBSECTOR": "Arquitectura", "FASE": 2003.0, "MUNICIPIO": "Orihuela", "NOMBEMPRES": "Arquiges Proyectos Slp", "CFORM": 0, "CPROD": 1, "CCONS": 0, "CDIFU": 0, "CTOTAL": 1 }, "geometry": { "type": "Point", "coordinates": [ -0.941914599999042, 38.081112300916253, 0.0 ] } },
{ "type": "Feature", "properties": { "SECTOR": "Diseño", "SUBSECTOR": "Arquitectura", "FASE": 1998.0, "MUNICIPIO": "Orihuela", "NOMBEMPRES": "Julian M Fuentes Ortuño-arquitectos Sl", "CFORM": 0, "CPROD": 1, "CCONS": 0, "CDIFU": 0, "CTOTAL": 1 }, "geometry": { "type": "Point", "coordinates": [ -0.932962399999004, 38.087096400916309, 0.0 ] } },
{ "type": "Feature", "properties": { "SECTOR": "Diseño", "SUBSECTOR": "Arquitectura", "FASE": 2002.0, "MUNICIPIO": "Orihuela", "NOMBEMPRES": "Sima Arquitectura Sl", "CFORM": 0, "CPROD": 1, "CCONS": 0, "CDIFU": 0, "CTOTAL": 1 }, "geometry": { "type": "Point", "coordinates": [ -0.951169699999088, 38.081472900916268, 0.0 ] } },
{ "type": "Feature", "properties": { "SECTOR": "Diseño", "SUBSECTOR": "Arquitectura", "FASE": 2017.0, "MUNICIPIO": "Orihuela", "NOMBEMPRES": "Estudio Tyr Proyectos 2017 Sl.", "CFORM": 0, "CPROD": 1, "CCONS": 0, "CDIFU": 0, "CTOTAL": 1 }, "geometry": { "type": "Point", "coordinates": [ -1.002274899999227, 38.081548100916301, 0.0 ] } },
{ "type": "Feature", "properties": { "SECTOR": "Diseño", "SUBSECTOR": "Arquitectura", "FASE": 1997.0, "MUNICIPIO": "Orihuela", "NOMBEMPRES": "Carlos Salgado Arquitecto Sl", "CFORM": 0, "CPROD": 1, "CCONS": 0, "CDIFU": 0, "CTOTAL": 1 }, "geometry": { "type": "Point", "coordinates": [ -0.724671499998072, 37.920139200914981, 0.0 ] } },
{ "type": "Feature", "properties": { "SECTOR": "Diseño", "SUBSECTOR": "Arquitectura", "FASE": 1996.0, "MUNICIPIO": "Orihuela", "NOMBEMPRES": "Rp Arquitecto Slp", "CFORM": 0, "CPROD": 1, "CCONS": 0, "CDIFU": 0, "CTOTAL": 1 }, "geometry": { "type": "Point", "coordinates": [ -0.943375999999029, 38.080332600916286, 0.0 ] } },
{ "type": "Feature", "properties": { "SECTOR": "Diseño", "SUBSECTOR": "Arquitectura", "FASE": 2007.0, "MUNICIPIO": "Orihuela", "NOMBEMPRES": "Jorge Albero Sanjuan Sl", "CFORM": 0, "CPROD": 1, "CCONS": 0, "CDIFU": 0, "CTOTAL": 1 }, "geometry": { "type": "Point", "coordinates": [ -0.943771199999044, 38.081863300916282, 0.0 ] } },
{ "type": "Feature", "properties": { "SECTOR": "Diseño", "SUBSECTOR": "Arquitectura", "FASE": 2002.0, "MUNICIPIO": "Orihuela", "NOMBEMPRES": "Jm Fuentes Ortuño Arqvs Slp", "CFORM": 0, "CPROD": 1, "CCONS": 0, "CDIFU": 0, "CTOTAL": 1 }, "geometry": { "type": "Point", "coordinates": [ -0.932915599998997, 38.087138500916296, 0.0 ] } },
{ "type": "Feature", "properties": { "SECTOR": "Diseño", "SUBSECTOR": "Arquitectura", "FASE": 1997.0, "MUNICIPIO": "Orihuela", "NOMBEMPRES": "Gabinete Para La Arquitectura Mediterranea Sl", "CFORM": 0, "CPROD": 1, "CCONS": 0, "CDIFU": 0, "CTOTAL": 1 }, "geometry": { "type": "Point", "coordinates": [ -0.951600799999047, 38.082951300916285, 0.0 ] } },
{ "type": "Feature", "properties": { "SECTOR": "Diseño", "SUBSECTOR": "Arquitectura", "FASE": 2015.0, "MUNICIPIO": "Orihuela", "NOMBEMPRES": "Imat Ambiental Sl.", "CFORM": 0, "CPROD": 1, "CCONS": 0, "CDIFU": 0, "CTOTAL": 1 }, "geometry": { "type": "Point", "coordinates": [ -0.951169699999088, 38.081472900916268, 0.0 ] } },
{ "type": "Feature", "properties": { "SECTOR": "Diseño", "SUBSECTOR": "Arquitectura", "FASE": 2003.0, "MUNICIPIO": "Orihuela", "NOMBEMPRES": "Invermata Sl", "CFORM": 0, "CPROD": 1, "CCONS": 0, "CDIFU": 0, "CTOTAL": 1 }, "geometry": { "type": "Point", "coordinates": [ -0.729752199998109, 37.913719400914921, 0.0 ] } },
{ "type": "Feature", "properties": { "SECTOR": "Diseño", "SUBSECTOR": "Arquitectura", "FASE": 2003.0, "MUNICIPIO": "Orihuela", "NOMBEMPRES": "G-zarco Estudio Slp", "CFORM": 0, "CPROD": 1, "CCONS": 0, "CDIFU": 0, "CTOTAL": 1 }, "geometry": { "type": "Point", "coordinates": [ -0.947413299999034, 38.084140000916285, 0.0 ] } },
{ "type": "Feature", "properties": { "SECTOR": "Diseño", "SUBSECTOR": "Arquitectura", "FASE": 2004.0, "MUNICIPIO": "Orihuela", "NOMBEMPRES": "Sociedad Gestora De Promociones Y Proyectos Arquidel Sl", "CFORM": 0, "CPROD": 1, "CCONS": 0, "CDIFU": 0, "CTOTAL": 1 }, "geometry": { "type": "Point", "coordinates": [ -0.939460099999035, 38.081613200916259, 0.0 ] } },
{ "type": "Feature", "properties": { "SECTOR": "Diseño", "SUBSECTOR": "Arquitectura", "FASE": 2003.0, "MUNICIPIO": "Orihuela", "NOMBEMPRES": "Salgado Arquitectos Asociados Slp", "CFORM": 0, "CPROD": 1, "CCONS": 0, "CDIFU": 0, "CTOTAL": 1 }, "geometry": { "type": "Point", "coordinates": [ -0.729767899998115, 37.913695100914914, 0.0 ] } },
{ "type": "Feature", "properties": { "SECTOR": "Diseño", "SUBSECTOR": "Arquitectura", "FASE": 2003.0, "MUNICIPIO": "Orihuela", "NOMBEMPRES": "E. Cacho Arquitecto Slp", "CFORM": 0, "CPROD": 1, "CCONS": 0, "CDIFU": 0, "CTOTAL": 1 }, "geometry": { "type": "Point", "coordinates": [ -0.942359499999034, 38.081277900916248, 0.0 ] } },
{ "type": "Feature", "properties": { "SECTOR": "Diseño", "SUBSECTOR": "Arquitectura", "FASE": 2014.0, "MUNICIPIO": "Orihuela", "NOMBEMPRES": "Studiogaraje Slp.", "CFORM": 0, "CPROD": 1, "CCONS": 0, "CDIFU": 0, "CTOTAL": 1 }, "geometry": { "type": "Point", "coordinates": [ -0.947776999999071, 38.083196300916278, 0.0 ] } },
{ "type": "Feature", "properties": { "SECTOR": "Diseño", "SUBSECTOR": "Diseño gráfico", "FASE": 2014.0, "MUNICIPIO": "Pilar de la Horadada", "NOMBEMPRES": "El Lado Creativo Impresion C.b.", "CFORM": 0, "CPROD": 1, "CCONS": 0, "CDIFU": 0, "CTOTAL": 1 }, "geometry": { "type": "Point", "coordinates": [ -0.792391499998432, 37.865073300914567, 0.0 ] } },
{ "type": "Feature", "properties": { "SECTOR": "Diseño", "SUBSECTOR": "Joyería", "FASE": 2001.0, "MUNICIPIO": "Pilar de la Horadada", "NOMBEMPRES": "Monica Berrocal S.l.", "CFORM": 0, "CPROD": 0, "CCONS": 1, "CDIFU": 0, "CTOTAL": 1 }, "geometry": { "type": "Point", "coordinates": [ -0.762669399998267, 37.846729700914373, 0.0 ] } },
{ "type": "Feature", "properties": { "SECTOR": "Diseño", "SUBSECTOR": "Joyería", "FASE": 1994.0, "MUNICIPIO": "Pilar de la Horadada", "NOMBEMPRES": "Ana Y Victor Sl", "CFORM": 0, "CPROD": 0, "CCONS": 1, "CDIFU": 0, "CTOTAL": 1 }, "geometry": { "type": "Point", "coordinates": [ -0.79135989999845, 37.864835000914532, 0.0 ] } },
{ "type": "Feature", "properties": { "SECTOR": "Diseño", "SUBSECTOR": "Arquitectura", "FASE": 2008.0, "MUNICIPIO": "Pilar de la Horadada", "NOMBEMPRES": "Martinez Phinney Arquitectos Sll.", "CFORM": 0, "CPROD": 1, "CCONS": 0, "CDIFU": 0, "CTOTAL": 1 }, "geometry": { "type": "Point", "coordinates": [ -0.792023999998448, 37.865150000914532, 0.0 ] } },
{ "type": "Feature", "properties": { "SECTOR": "Diseño", "SUBSECTOR": "Arquitectura", "FASE": 2003.0, "MUNICIPIO": "Pilar de la Horadada", "NOMBEMPRES": "Jose Antonio Albaladejo Slp", "CFORM": 0, "CPROD": 1, "CCONS": 0, "CDIFU": 0, "CTOTAL": 1 }, "geometry": { "type": "Point", "coordinates": [ -0.791197699998416, 37.864524000914564, 0.0 ] } },
{ "type": "Feature", "properties": { "SECTOR": "Diseño", "SUBSECTOR": "Arquitectura", "FASE": 2011.0, "MUNICIPIO": "Pilar de la Horadada", "NOMBEMPRES": "Gestinpro 3000 Sl.", "CFORM": 0, "CPROD": 1, "CCONS": 0, "CDIFU": 0, "CTOTAL": 1 }, "geometry": { "type": "Point", "coordinates": [ -0.785252099998426, 37.865394600914556, 0.0 ] } },
{ "type": "Feature", "properties": { "SECTOR": "Diseño", "SUBSECTOR": "Arquitectura", "FASE": 1995.0, "MUNICIPIO": "Pilar de la Horadada", "NOMBEMPRES": "Sm Despacho De Arquitectura Slp", "CFORM": 0, "CPROD": 1, "CCONS": 0, "CDIFU": 0, "CTOTAL": 1 }, "geometry": { "type": "Point", "coordinates": [ -0.792026799998452, 37.86513890091453, 0.0 ] } },
{ "type": "Feature", "properties": { "SECTOR": "Diseño", "SUBSECTOR": "Arquitectura", "FASE": 1997.0, "MUNICIPIO": "Pilar de la Horadada", "NOMBEMPRES": "Tecnipila Slp", "CFORM": 0, "CPROD": 1, "CCONS": 0, "CDIFU": 0, "CTOTAL": 1 }, "geometry": { "type": "Point", "coordinates": [ -0.791685799998403, 37.86514300091455, 0.0 ] } },
{ "type": "Feature", "properties": { "SECTOR": "Diseño", "SUBSECTOR": "Diseño de interiores", "FASE": 2017.0, "MUNICIPIO": "Pilar de la Horadada", "NOMBEMPRES": "Tangente Creativos Sl.", "CFORM": 0, "CPROD": 1, "CCONS": 0, "CDIFU": 0, "CTOTAL": 1 }, "geometry": { "type": "Point", "coordinates": [ -0.790708799998419, 37.860507100914525, 0.0 ] } },
{ "type": "Feature", "properties": { "SECTOR": "Diseño", "SUBSECTOR": "Arquitectura", "FASE": 2004.0, "MUNICIPIO": "Redován", "NOMBEMPRES": "Cfr Aparejador Slp", "CFORM": 0, "CPROD": 1, "CCONS": 0, "CDIFU": 0, "CTOTAL": 1 }, "geometry": { "type": "Point", "coordinates": [ -0.905742699998926, 38.114526800916551, 0.0 ] } },
{ "type": "Feature", "properties": { "SECTOR": "Diseño", "SUBSECTOR": "Arquitectura", "FASE": 2003.0, "MUNICIPIO": "Redován", "NOMBEMPRES": "Ac Arquitectura Y Gestion Urbanistica Slp", "CFORM": 0, "CPROD": 1, "CCONS": 0, "CDIFU": 0, "CTOTAL": 1 }, "geometry": { "type": "Point", "coordinates": [ -0.903635299998918, 38.112101200916491, 0.0 ] } },
{ "type": "Feature", "properties": { "SECTOR": "Diseño", "SUBSECTOR": "Arquitectura", "FASE": 1993.0, "MUNICIPIO": "Redován", "NOMBEMPRES": "J. A. Ballesta Slp", "CFORM": 0, "CPROD": 1, "CCONS": 0, "CDIFU": 0, "CTOTAL": 1 }, "geometry": { "type": "Point", "coordinates": [ -0.904432799998897, 38.112107400916521, 0.0 ] } },
{ "type": "Feature", "properties": { "SECTOR": "Diseño", "SUBSECTOR": "Arquitectura", "FASE": 2006.0, "MUNICIPIO": "Rojales", "NOMBEMPRES": "Azorin5 Arquitectura Slp", "CFORM": 0, "CPROD": 1, "CCONS": 0, "CDIFU": 0, "CTOTAL": 1 }, "geometry": { "type": "Point", "coordinates": [ -0.721767999998074, 38.090116000916375, 0.0 ] } },
{ "type": "Feature", "properties": { "SECTOR": "Diseño", "SUBSECTOR": "Diseño gráfico", "FASE": 2005.0, "MUNICIPIO": "Rojales", "NOMBEMPRES": "Johanna & Moile Colorstudio Sl", "CFORM": 0, "CPROD": 1, "CCONS": 0, "CDIFU": 0, "CTOTAL": 1 }, "geometry": { "type": "Point", "coordinates": [ -0.707317499997976, 38.074633200916203, 0.0 ] } },
{ "type": "Feature", "properties": { "SECTOR": "Diseño", "SUBSECTOR": "Diseño gráfico", "FASE": 2016.0, "MUNICIPIO": "San Fulgencio", "NOMBEMPRES": "Peter Blaidd Sl.", "CFORM": 0, "CPROD": 1, "CCONS": 0, "CDIFU": 0, "CTOTAL": 1 }, "geometry": { "type": "Point", "coordinates": [ -0.675715899997802, 38.137795000916697, 0.0 ] } },
{ "type": "Feature", "properties": { "SECTOR": "Diseño", "SUBSECTOR": "Arquitectura", "FASE": 1998.0, "MUNICIPIO": "San Fulgencio", "NOMBEMPRES": "Juan Martinez Arquitecto Slp", "CFORM": 0, "CPROD": 1, "CCONS": 0, "CDIFU": 0, "CTOTAL": 1 }, "geometry": { "type": "Point", "coordinates": [ -0.693583299997913, 38.130896600916621, 0.0 ] } },
{ "type": "Feature", "properties": { "SECTOR": "Diseño", "SUBSECTOR": "Diseño gráfico", "FASE": 2010.0, "MUNICIPIO": "San Isidro", "NOMBEMPRES": "Industrial Levante 2002 Sl.", "CFORM": 0, "CPROD": 1, "CCONS": 0, "CDIFU": 0, "CTOTAL": 1 }, "geometry": { "type": "Point", "coordinates": [ -0.836532799998634, 38.177266100917016, 0.0 ] } },
{ "type": "Feature", "properties": { "SECTOR": "Diseño", "SUBSECTOR": "Diseño gráfico", "FASE": 2008.0, "MUNICIPIO": "San Isidro", "NOMBEMPRES": "Logic Center Print & Mail S.l.", "CFORM": 0, "CPROD": 1, "CCONS": 0, "CDIFU": 0, "CTOTAL": 1 }, "geometry": { "type": "Point", "coordinates": [ -0.840590699998672, 38.170622100916958, 0.0 ] } },
{ "type": "Feature", "properties": { "SECTOR": "Diseño", "SUBSECTOR": "Diseño gráfico", "FASE": 2006.0, "MUNICIPIO": "San Isidro", "NOMBEMPRES": "Papeles San Isidro S.l.", "CFORM": 0, "CPROD": 0, "CCONS": 1, "CDIFU": 0, "CTOTAL": 1 }, "geometry": { "type": "Point", "coordinates": [ -0.837594099998642, 38.177772100916997, 0.0 ] } },
{ "type": "Feature", "properties": { "SECTOR": "Diseño", "SUBSECTOR": "Diseño gráfico", "FASE": 2007.0, "MUNICIPIO": "San Isidro", "NOMBEMPRES": "Artes Graficas San Isidro Sl", "CFORM": 0, "CPROD": 1, "CCONS": 1, "CDIFU": 0, "CTOTAL": 2 }, "geometry": { "type": "Point", "coordinates": [ -0.838360999998677, 38.171203700916941, 0.0 ] } },
{ "type": "Feature", "properties": { "SECTOR": "Diseño", "SUBSECTOR": "Diseño gráfico", "FASE": 2004.0, "MUNICIPIO": "San Miguel de Salinas", "NOMBEMPRES": "Artes Graficas San Miguel S.c.", "CFORM": 0, "CPROD": 1, "CCONS": 1, "CDIFU": 0, "CTOTAL": 2 }, "geometry": { "type": "Point", "coordinates": [ -0.787204399998417, 37.977224200915472, 0.0 ] } },
{ "type": "Feature", "properties": { "SECTOR": "Diseño", "SUBSECTOR": "Arquitectura", "FASE": 2016.0, "MUNICIPIO": "San Miguel de Salinas", "NOMBEMPRES": "Estudio 80 Arquitectura E Ingenieria C.b.", "CFORM": 0, "CPROD": 1, "CCONS": 0, "CDIFU": 0, "CTOTAL": 1 }, "geometry": { "type": "Point", "coordinates": [ -0.789918799998431, 37.978888400915466, 0.0 ] } },
{ "type": "Feature", "properties": { "SECTOR": "Diseño", "SUBSECTOR": "Arquitectura", "FASE": 2006.0, "MUNICIPIO": "San Miguel de Salinas", "NOMBEMPRES": "Miguel Escolano Arquitecto Slp", "CFORM": 0, "CPROD": 1, "CCONS": 0, "CDIFU": 0, "CTOTAL": 1 }, "geometry": { "type": "Point", "coordinates": [ -0.789996799998406, 37.978915600915442, 0.0 ] } },
{ "type": "Feature", "properties": { "SECTOR": "Diseño", "SUBSECTOR": "Diseño de interiores", "FASE": 2014.0, "MUNICIPIO": "San Miguel de Salinas", "NOMBEMPRES": "Proyecta & Partners Spain Sl.", "CFORM": 0, "CPROD": 1, "CCONS": 0, "CDIFU": 0, "CTOTAL": 1 }, "geometry": { "type": "Point", "coordinates": [ -0.789400199998409, 37.981403300915481, 0.0 ] } },
{ "type": "Feature", "properties": { "SECTOR": "Diseño", "SUBSECTOR": "Joyería", "FASE": 2018.0, "MUNICIPIO": "Torrevieja", "NOMBEMPRES": "Igor Y Griñant Joyeros Sl.", "CFORM": 0, "CPROD": 1, "CCONS": 1, "CDIFU": 1, "CTOTAL": 3 }, "geometry": { "type": "Point", "coordinates": [ -0.680734899997817, 37.977877400915453, 0.0 ] } },
{ "type": "Feature", "properties": { "SECTOR": "Diseño", "SUBSECTOR": "Joyería", "FASE": 2015.0, "MUNICIPIO": "Torrevieja", "NOMBEMPRES": "4 Estmar Joyeros Sl.", "CFORM": 0, "CPROD": 1, "CCONS": 1, "CDIFU": 1, "CTOTAL": 3 }, "geometry": { "type": "Point", "coordinates": [ -0.680351099997806, 37.977802000915439, 0.0 ] } },
{ "type": "Feature", "properties": { "SECTOR": "Diseño", "SUBSECTOR": "Joyería", "FASE": 2007.0, "MUNICIPIO": "Torrevieja", "NOMBEMPRES": "Un Regalo Para Ti Sl", "CFORM": 0, "CPROD": 1, "CCONS": 0, "CDIFU": 0, "CTOTAL": 1 }, "geometry": { "type": "Point", "coordinates": [ -0.6808275999978, 37.977895100915461, 0.0 ] } },
{ "type": "Feature", "properties": { "SECTOR": "Diseño", "SUBSECTOR": "Joyería", "FASE": 2015.0, "MUNICIPIO": "Torrevieja", "NOMBEMPRES": "Watermark Sl.", "CFORM": 0, "CPROD": 1, "CCONS": 1, "CDIFU": 0, "CTOTAL": 2 }, "geometry": { "type": "Point", "coordinates": [ -0.678530599997787, 37.979305400915443, 0.0 ] } },
{ "type": "Feature", "properties": { "SECTOR": "Diseño", "SUBSECTOR": "Joyería", "FASE": 2009.0, "MUNICIPIO": "Torrevieja", "NOMBEMPRES": "Doppia P Sl", "CFORM": 0, "CPROD": 0, "CCONS": 1, "CDIFU": 0, "CTOTAL": 1 }, "geometry": { "type": "Point", "coordinates": [ -0.680467299997843, 37.976459700915449, 0.0 ] } },
{ "type": "Feature", "properties": { "SECTOR": "Diseño", "SUBSECTOR": "Joyería", "FASE": 2018.0, "MUNICIPIO": "Torrevieja", "NOMBEMPRES": "Enefectivo Franquicias Sl.", "CFORM": 0, "CPROD": 0, "CCONS": 1, "CDIFU": 0, "CTOTAL": 1 }, "geometry": { "type": "Point", "coordinates": [ -0.683342499997867, 37.979151800915481, 0.0 ] } },
{ "type": "Feature", "properties": { "SECTOR": "Diseño", "SUBSECTOR": "Joyería", "FASE": 2000.0, "MUNICIPIO": "Torrevieja", "NOMBEMPRES": "Premier Oro Sl", "CFORM": 0, "CPROD": 0, "CCONS": 1, "CDIFU": 0, "CTOTAL": 1 }, "geometry": { "type": "Point", "coordinates": [ -0.67921739999783, 37.975551500915429, 0.0 ] } },
{ "type": "Feature", "properties": { "SECTOR": "Diseño", "SUBSECTOR": "Joyería", "FASE": 2015.0, "MUNICIPIO": "Torrevieja", "NOMBEMPRES": "Melitello Sl.", "CFORM": 0, "CPROD": 0, "CCONS": 1, "CDIFU": 0, "CTOTAL": 1 }, "geometry": { "type": "Point", "coordinates": [ -0.67908499999779, 37.981787100915511, 0.0 ] } },
{ "type": "Feature", "properties": { "SECTOR": "Diseño", "SUBSECTOR": "Joyería", "FASE": 2003.0, "MUNICIPIO": "Torrevieja", "NOMBEMPRES": "Joyeria Raquel E Hijos Sl", "CFORM": 0, "CPROD": 0, "CCONS": 1, "CDIFU": 0, "CTOTAL": 1 }, "geometry": { "type": "Point", "coordinates": [ -0.682171299997815, 37.980630900915465, 0.0 ] } },
{ "type": "Feature", "properties": { "SECTOR": "Diseño", "SUBSECTOR": "Joyería", "FASE": 2000.0, "MUNICIPIO": "Torrevieja", "NOMBEMPRES": "Torrejoyas Sl", "CFORM": 0, "CPROD": 0, "CCONS": 1, "CDIFU": 0, "CTOTAL": 1 }, "geometry": { "type": "Point", "coordinates": [ -0.673000099997786, 37.97552300091543, 0.0 ] } },
{ "type": "Feature", "properties": { "SECTOR": "Diseño", "SUBSECTOR": "Arquitectura", "FASE": 2000.0, "MUNICIPIO": "Torrevieja", "NOMBEMPRES": "Torres Y Marquerie Arquitectos Sl", "CFORM": 0, "CPROD": 1, "CCONS": 0, "CDIFU": 0, "CTOTAL": 1 }, "geometry": { "type": "Point", "coordinates": [ -0.683364899997844, 37.976362500915428, 0.0 ] } },
{ "type": "Feature", "properties": { "SECTOR": "Diseño", "SUBSECTOR": "Arquitectura", "FASE": 2000.0, "MUNICIPIO": "Torrevieja", "NOMBEMPRES": "Investigacion Desarrollo Espacio Y Arquitectura Sl", "CFORM": 0, "CPROD": 1, "CCONS": 0, "CDIFU": 0, "CTOTAL": 1 }, "geometry": { "type": "Point", "coordinates": [ -0.683571099997825, 37.978148200915491, 0.0 ] } },
{ "type": "Feature", "properties": { "SECTOR": "Diseño", "SUBSECTOR": "Arquitectura", "FASE": 2001.0, "MUNICIPIO": "Torrevieja", "NOMBEMPRES": "Toyo Ito Spain And Associates Sl", "CFORM": 0, "CPROD": 1, "CCONS": 0, "CDIFU": 0, "CTOTAL": 1 }, "geometry": { "type": "Point", "coordinates": [ -0.683560199997819, 37.978148400915458, 0.0 ] } },
{ "type": "Feature", "properties": { "SECTOR": "Diseño", "SUBSECTOR": "Arquitectura", "FASE": 2017.0, "MUNICIPIO": "Torrevieja", "NOMBEMPRES": "Gestion De Obras Y Arquitectura Javier Montoro Slp.", "CFORM": 0, "CPROD": 1, "CCONS": 0, "CDIFU": 0, "CTOTAL": 1 }, "geometry": { "type": "Point", "coordinates": [ -0.680383799997826, 37.977389700915431, 0.0 ] } },
{ "type": "Feature", "properties": { "SECTOR": "Diseño", "SUBSECTOR": "Arquitectura", "FASE": 2015.0, "MUNICIPIO": "Torrevieja", "NOMBEMPRES": "Ecoarc Arquitectos Slp.", "CFORM": 0, "CPROD": 1, "CCONS": 0, "CDIFU": 0, "CTOTAL": 1 }, "geometry": { "type": "Point", "coordinates": [ -0.703077399997934, 37.962021500915306, 0.0 ] } },
{ "type": "Feature", "properties": { "SECTOR": "Diseño", "SUBSECTOR": "Arquitectura", "FASE": 2015.0, "MUNICIPIO": "Torrevieja", "NOMBEMPRES": "Torrefincas Torrevieja Sl.", "CFORM": 0, "CPROD": 1, "CCONS": 0, "CDIFU": 0, "CTOTAL": 1 }, "geometry": { "type": "Point", "coordinates": [ -0.680195299997845, 37.977221300915431, 0.0 ] } },
{ "type": "Feature", "properties": { "SECTOR": "Diseño", "SUBSECTOR": "Arquitectura", "FASE": 2001.0, "MUNICIPIO": "Torrevieja", "NOMBEMPRES": "Garcia Molina Tasaciones Sl", "CFORM": 0, "CPROD": 1, "CCONS": 0, "CDIFU": 0, "CTOTAL": 1 }, "geometry": { "type": "Point", "coordinates": [ -0.679077699997796, 37.976553300915413, 0.0 ] } },
{ "type": "Feature", "properties": { "SECTOR": "Diseño", "SUBSECTOR": "Arquitectura", "FASE": 2009.0, "MUNICIPIO": "Torrevieja", "NOMBEMPRES": "I B. Arquitectura Y Urbanismo S. L. Union Temporal", "CFORM": 0, "CPROD": 1, "CCONS": 0, "CDIFU": 0, "CTOTAL": 1 }, "geometry": { "type": "Point", "coordinates": [ -0.682225199997828, 37.977918000915452, 0.0 ] } },
{ "type": "Feature", "properties": { "SECTOR": "Diseño", "SUBSECTOR": "Arquitectura", "FASE": 2011.0, "MUNICIPIO": "Torrevieja", "NOMBEMPRES": "Rodriguez Y Soler Arquitectos Slp", "CFORM": 0, "CPROD": 1, "CCONS": 0, "CDIFU": 0, "CTOTAL": 1 }, "geometry": { "type": "Point", "coordinates": [ -0.669055099997774, 37.981031300915461, 0.0 ] } },
{ "type": "Feature", "properties": { "SECTOR": "Diseño", "SUBSECTOR": "Arquitectura", "FASE": 1998.0, "MUNICIPIO": "Torrevieja", "NOMBEMPRES": "Estudio De Arquitectura Navarro Sanchez Sl", "CFORM": 0, "CPROD": 1, "CCONS": 0, "CDIFU": 0, "CTOTAL": 1 }, "geometry": { "type": "Point", "coordinates": [ -0.676616499997809, 37.975166000915422, 0.0 ] } },
{ "type": "Feature", "properties": { "SECTOR": "Diseño", "SUBSECTOR": "Arquitectura", "FASE": 2003.0, "MUNICIPIO": "Torrevieja", "NOMBEMPRES": "Molpeceres Arquitectura Tecnica Sl", "CFORM": 0, "CPROD": 1, "CCONS": 0, "CDIFU": 0, "CTOTAL": 1 }, "geometry": { "type": "Point", "coordinates": [ -0.678833799997807, 37.976003100915435, 0.0 ] } },
{ "type": "Feature", "properties": { "SECTOR": "Diseño", "SUBSECTOR": "Arquitectura", "FASE": 2003.0, "MUNICIPIO": "Torrevieja", "NOMBEMPRES": "Invergestion Jedme Sl", "CFORM": 0, "CPROD": 1, "CCONS": 0, "CDIFU": 0, "CTOTAL": 1 }, "geometry": { "type": "Point", "coordinates": [ -0.682721899997816, 37.977054500915457, 0.0 ] } },
{ "type": "Feature", "properties": { "SECTOR": "Diseño", "SUBSECTOR": "Arquitectura", "FASE": 1998.0, "MUNICIPIO": "Torrevieja", "NOMBEMPRES": "Ismael Pastor Arquitectura Slp", "CFORM": 0, "CPROD": 1, "CCONS": 0, "CDIFU": 0, "CTOTAL": 1 }, "geometry": { "type": "Point", "coordinates": [ -0.682140199997813, 37.977919900915452, 0.0 ] } },
{ "type": "Feature", "properties": { "SECTOR": "Diseño", "SUBSECTOR": "Arquitectura", "FASE": 2002.0, "MUNICIPIO": "Torrevieja", "NOMBEMPRES": "Sforzinda Sl", "CFORM": 0, "CPROD": 1, "CCONS": 0, "CDIFU": 0, "CTOTAL": 1 }, "geometry": { "type": "Point", "coordinates": [ -0.667937899997756, 37.981115300915484, 0.0 ] } },
{ "type": "Feature", "properties": { "SECTOR": "Diseño", "SUBSECTOR": "Arquitectura", "FASE": 2004.0, "MUNICIPIO": "Torrevieja", "NOMBEMPRES": "Joaquin Blanco Torres Y Asociados Slp", "CFORM": 0, "CPROD": 1, "CCONS": 0, "CDIFU": 0, "CTOTAL": 1 }, "geometry": { "type": "Point", "coordinates": [ -0.684914499997831, 37.977808300915449, 0.0 ] } },
{ "type": "Feature", "properties": { "SECTOR": "Diseño", "SUBSECTOR": "Arquitectura", "FASE": 2003.0, "MUNICIPIO": "Torrevieja", "NOMBEMPRES": "Dajues Inversiones Slp", "CFORM": 0, "CPROD": 1, "CCONS": 0, "CDIFU": 0, "CTOTAL": 1 }, "geometry": { "type": "Point", "coordinates": [ -0.682495599997805, 37.977065100915468, 0.0 ] } },
{ "type": "Feature", "properties": { "SECTOR": "Diseño", "SUBSECTOR": "Arquitectura", "FASE": 2006.0, "MUNICIPIO": "Torrevieja", "NOMBEMPRES": "Planificacion Integral De Arquitectura Sl", "CFORM": 0, "CPROD": 1, "CCONS": 0, "CDIFU": 0, "CTOTAL": 1 }, "geometry": { "type": "Point", "coordinates": [ -0.686362299997833, 37.976939200915425, 0.0 ] } },
{ "type": "Feature", "properties": { "SECTOR": "Diseño", "SUBSECTOR": "Arquitectura", "FASE": 2004.0, "MUNICIPIO": "Torrevieja", "NOMBEMPRES": "Fernando De C Gomez Arquitecto Slp", "CFORM": 0, "CPROD": 1, "CCONS": 0, "CDIFU": 0, "CTOTAL": 1 }, "geometry": { "type": "Point", "coordinates": [ -0.679774799997826, 37.976474400915407, 0.0 ] } },
{ "type": "Feature", "properties": { "SECTOR": "Diseño", "SUBSECTOR": "Arquitectura", "FASE": 2008.0, "MUNICIPIO": "Torrevieja", "NOMBEMPRES": "Luis Felipe Estrada Muniozguren Arquitectura Slp", "CFORM": 0, "CPROD": 1, "CCONS": 0, "CDIFU": 0, "CTOTAL": 1 }, "geometry": { "type": "Point", "coordinates": [ -0.689212599997886, 37.978622400915448, 0.0 ] } },
{ "type": "Feature", "properties": { "SECTOR": "Diseño", "SUBSECTOR": "Arquitectura", "FASE": 2000.0, "MUNICIPIO": "Torrevieja", "NOMBEMPRES": "A Empresas Cons Vegatec Sl", "CFORM": 0, "CPROD": 1, "CCONS": 0, "CDIFU": 0, "CTOTAL": 1 }, "geometry": { "type": "Point", "coordinates": [ -0.705661199997973, 37.955519100915261, 0.0 ] } },
{ "type": "Feature", "properties": { "SECTOR": "Diseño", "SUBSECTOR": "Arquitectura", "FASE": 2014.0, "MUNICIPIO": "Torrevieja", "NOMBEMPRES": "Akra Arquitectura Urbana Sl.", "CFORM": 0, "CPROD": 1, "CCONS": 0, "CDIFU": 0, "CTOTAL": 1 }, "geometry": { "type": "Point", "coordinates": [ -0.679656599997792, 37.979166800915444, 0.0 ] } },
{ "type": "Feature", "properties": { "SECTOR": "Diseño", "SUBSECTOR": "Arquitectura", "FASE": 2008.0, "MUNICIPIO": "Torrevieja", "NOMBEMPRES": "Unidad Tecnica De Tasaciones Slp", "CFORM": 0, "CPROD": 1, "CCONS": 0, "CDIFU": 0, "CTOTAL": 1 }, "geometry": { "type": "Point", "coordinates": [ -0.679027999997818, 37.976612900915448, 0.0 ] } },
{ "type": "Feature", "properties": { "SECTOR": "Diseño", "SUBSECTOR": "Arquitectura", "FASE": 2004.0, "MUNICIPIO": "Torrevieja", "NOMBEMPRES": "Rss Arquitectos Y Colaboradores Slp", "CFORM": 0, "CPROD": 1, "CCONS": 0, "CDIFU": 0, "CTOTAL": 1 }, "geometry": { "type": "Point", "coordinates": [ -0.669165799997768, 37.981035100915449, 0.0 ] } },
{ "type": "Feature", "properties": { "SECTOR": "Diseño", "SUBSECTOR": "Arquitectura", "FASE": 1997.0, "MUNICIPIO": "Torrevieja", "NOMBEMPRES": "Antonio Marquerie Arquitectos Y Asociados Sl", "CFORM": 0, "CPROD": 1, "CCONS": 0, "CDIFU": 0, "CTOTAL": 1 }, "geometry": { "type": "Point", "coordinates": [ -0.681806399997846, 37.978256900915483, 0.0 ] } },
{ "type": "Feature", "properties": { "SECTOR": "Diseño", "SUBSECTOR": "Diseño gráfico", "FASE": 2003.0, "MUNICIPIO": "Torrevieja", "NOMBEMPRES": "Juan Manuel Cerezuela Aracil Sl", "CFORM": 0, "CPROD": 1, "CCONS": 0, "CDIFU": 0, "CTOTAL": 1 }, "geometry": { "type": "Point", "coordinates": [ -0.681483299997843, 37.979959900915446, 0.0 ] } },
{ "type": "Feature", "properties": { "SECTOR": "Diseño", "SUBSECTOR": "Diseño gráfico", "FASE": 2003.0, "MUNICIPIO": "Torrevieja", "NOMBEMPRES": "Jose Domingo Hurtado Rocamora Sl", "CFORM": 0, "CPROD": 1, "CCONS": 0, "CDIFU": 0, "CTOTAL": 1 }, "geometry": { "type": "Point", "coordinates": [ -0.677787399997794, 37.977635900915459, 0.0 ] } },
{ "type": "Feature", "properties": { "SECTOR": "Diseño", "SUBSECTOR": "Diseño de interiores", "FASE": 2018.0, "MUNICIPIO": "Torrevieja", "NOMBEMPRES": "Lo Conte Holiday Services Sl.", "CFORM": 0, "CPROD": 1, "CCONS": 0, "CDIFU": 0, "CTOTAL": 1 }, "geometry": { "type": "Point", "coordinates": [ -0.70342189999798, 37.999048600915579, 0.0 ] } },
{ "type": "Feature", "properties": { "SECTOR": "Medios", "SUBSECTOR": "Internet", "FASE": 2005.0, "MUNICIPIO": "Albatera", "NOMBEMPRES": "Grupo Empresarial Peluche S.l.", "CFORM": 0, "CPROD": 0, "CCONS": 1, "CDIFU": 0, "CTOTAL": 1 }, "geometry": { "type": "Point", "coordinates": [ -0.872215899998805, 38.182433300917083, 0.0 ] } },
{ "type": "Feature", "properties": { "SECTOR": "Medios", "SUBSECTOR": "Televisión", "FASE": 2014.0, "MUNICIPIO": "Albatera", "NOMBEMPRES": "Peluche Tv Producciones Sl.", "CFORM": 0, "CPROD": 0, "CCONS": 1, "CDIFU": 0, "CTOTAL": 1 }, "geometry": { "type": "Point", "coordinates": [ -0.872229999998793, 38.182447300917048, 0.0 ] } },
{ "type": "Feature", "properties": { "SECTOR": "Medios", "SUBSECTOR": "Televisión", "FASE": 2013.0, "MUNICIPIO": "Albatera", "NOMBEMPRES": "Microzanjas Peluche Sl.", "CFORM": 0, "CPROD": 0, "CCONS": 1, "CDIFU": 0, "CTOTAL": 1 }, "geometry": { "type": "Point", "coordinates": [ -0.872229999998793, 38.182447300917048, 0.0 ] } },
{ "type": "Feature", "properties": { "SECTOR": "Medios", "SUBSECTOR": "Publicidad y marketing", "FASE": 1998.0, "MUNICIPIO": "Albatera", "NOMBEMPRES": "Moniz Language Communication Consultants S.l.", "CFORM": 1, "CPROD": 0, "CCONS": 0, "CDIFU": 0, "CTOTAL": 1 }, "geometry": { "type": "Point", "coordinates": [ -0.869904999998799, 38.179078400916993, 0.0 ] } },
{ "type": "Feature", "properties": { "SECTOR": "Medios", "SUBSECTOR": "Publicidad y marketing", "FASE": 2008.0, "MUNICIPIO": "Algorfa", "NOMBEMPRES": "Vega Baja Vip C.b.", "CFORM": 0, "CPROD": 1, "CCONS": 0, "CDIFU": 0, "CTOTAL": 1 }, "geometry": { "type": "Point", "coordinates": [ -0.796332799998478, 38.086505600916318, 0.0 ] } },
{ "type": "Feature", "properties": { "SECTOR": "Medios", "SUBSECTOR": "Publicidad y marketing", "FASE": 2013.0, "MUNICIPIO": "Algorfa", "NOMBEMPRES": "Marca La X Sl.", "CFORM": 0, "CPROD": 1, "CCONS": 0, "CDIFU": 0, "CTOTAL": 1 }, "geometry": { "type": "Point", "coordinates": [ -0.790825499998417, 38.064377100916133, 0.0 ] } },
{ "type": "Feature", "properties": { "SECTOR": "Medios", "SUBSECTOR": "Publicidad y marketing", "FASE": 2006.0, "MUNICIPIO": "Almoradí", "NOMBEMPRES": "Gestimarcas Asesores De Patentes Y Marcas S.l.", "CFORM": 1, "CPROD": 1, "CCONS": 0, "CDIFU": 0, "CTOTAL": 2 }, "geometry": { "type": "Point", "coordinates": [ -0.789777799998458, 38.108568600916492, 0.0 ] } },
{ "type": "Feature", "properties": { "SECTOR": "Medios", "SUBSECTOR": "Internet", "FASE": 2006.0, "MUNICIPIO": "Almoradí", "NOMBEMPRES": "Almoradi Virtual Sl", "CFORM": 0, "CPROD": 1, "CCONS": 0, "CDIFU": 0, "CTOTAL": 1 }, "geometry": { "type": "Point", "coordinates": [ -0.790523299998456, 38.111976600916499, 0.0 ] } },
{ "type": "Feature", "properties": { "SECTOR": "Medios", "SUBSECTOR": "Internet", "FASE": 2015.0, "MUNICIPIO": "Almoradí", "NOMBEMPRES": "Snuguers Web Sl.", "CFORM": 0, "CPROD": 1, "CCONS": 0, "CDIFU": 0, "CTOTAL": 1 }, "geometry": { "type": "Point", "coordinates": [ -0.798603999998486, 38.104904900916459, 0.0 ] } },
{ "type": "Feature", "properties": { "SECTOR": "Medios", "SUBSECTOR": "Publicidad y marketing", "FASE": 2018.0, "MUNICIPIO": "Almoradí", "NOMBEMPRES": "Enlazalia Web Business Sl.", "CFORM": 0, "CPROD": 1, "CCONS": 0, "CDIFU": 0, "CTOTAL": 1 }, "geometry": { "type": "Point", "coordinates": [ -0.796003099998471, 38.109473000916466, 0.0 ] } },
{ "type": "Feature", "properties": { "SECTOR": "Medios", "SUBSECTOR": "Publicidad y marketing", "FASE": 2016.0, "MUNICIPIO": "Almoradí", "NOMBEMPRES": "Clic Up Soluciones Sl.", "CFORM": 0, "CPROD": 1, "CCONS": 0, "CDIFU": 0, "CTOTAL": 1 }, "geometry": { "type": "Point", "coordinates": [ -0.791885899998455, 38.115326300916536, 0.0 ] } },
{ "type": "Feature", "properties": { "SECTOR": "Medios", "SUBSECTOR": "Publicidad y marketing", "FASE": 2008.0, "MUNICIPIO": "Almoradí", "NOMBEMPRES": "Asoc Moto Club Team Quinto Almoradi", "CFORM": 0, "CPROD": 1, "CCONS": 0, "CDIFU": 0, "CTOTAL": 1 }, "geometry": { "type": "Point", "coordinates": [ -0.790415099998456, 38.1117213009165, 0.0 ] } },
{ "type": "Feature", "properties": { "SECTOR": "Medios", "SUBSECTOR": "Publicidad y marketing", "FASE": 2002.0, "MUNICIPIO": "Almoradí", "NOMBEMPRES": "Asoc Almoradi Ciudad Del Mueble", "CFORM": 0, "CPROD": 1, "CCONS": 0, "CDIFU": 0, "CTOTAL": 1 }, "geometry": { "type": "Point", "coordinates": [ -0.787659599998408, 38.116774200916545, 0.0 ] } },
{ "type": "Feature", "properties": { "SECTOR": "Medios", "SUBSECTOR": "Publicidad y marketing", "FASE": 1999.0, "MUNICIPIO": "Almoradí", "NOMBEMPRES": "Publicidad Vegaservic S.l.", "CFORM": 0, "CPROD": 1, "CCONS": 0, "CDIFU": 0, "CTOTAL": 1 }, "geometry": { "type": "Point", "coordinates": [ -0.793388899998476, 38.106943700916453, 0.0 ] } },
{ "type": "Feature", "properties": { "SECTOR": "Medios", "SUBSECTOR": "Publicidad y marketing", "FASE": 2015.0, "MUNICIPIO": "Almoradí", "NOMBEMPRES": "Dos De Marketing C.b.", "CFORM": 0, "CPROD": 1, "CCONS": 0, "CDIFU": 0, "CTOTAL": 1 }, "geometry": { "type": "Point", "coordinates": [ -0.799344899998473, 38.112668100916537, 0.0 ] } },
{ "type": "Feature", "properties": { "SECTOR": "Medios", "SUBSECTOR": "Cine", "FASE": 2004.0, "MUNICIPIO": "Almoradí", "NOMBEMPRES": "Te Mueves O Caducas Sl", "CFORM": 0, "CPROD": 0, "CCONS": 1, "CDIFU": 1, "CTOTAL": 2 }, "geometry": { "type": "Point", "coordinates": [ -0.792878499998478, 38.110511600916489, 0.0 ] } },
{ "type": "Feature", "properties": { "SECTOR": "Medios", "SUBSECTOR": "Televisión", "FASE": 1987.0, "MUNICIPIO": "Benejúzar", "NOMBEMPRES": "Tv Benejuzar Sl", "CFORM": 0, "CPROD": 1, "CCONS": 0, "CDIFU": 0, "CTOTAL": 1 }, "geometry": { "type": "Point", "coordinates": [ -0.835950799998674, 38.07475780091621, 0.0 ] } },
{ "type": "Feature", "properties": { "SECTOR": "Medios", "SUBSECTOR": "Televisión", "FASE": 2015.0, "MUNICIPIO": "Benejúzar", "NOMBEMPRES": "Comunicacion Jacarilla Ute", "CFORM": 0, "CPROD": 1, "CCONS": 0, "CDIFU": 0, "CTOTAL": 1 }, "geometry": { "type": "Point", "coordinates": [ -0.837162099998644, 38.074310600916199, 0.0 ] } },
{ "type": "Feature", "properties": { "SECTOR": "Medios", "SUBSECTOR": "Publicidad y marketing", "FASE": 2009.0, "MUNICIPIO": "Benijófar", "NOMBEMPRES": "Sunflower Media Sl.", "CFORM": 0, "CPROD": 1, "CCONS": 0, "CDIFU": 0, "CTOTAL": 1 }, "geometry": { "type": "Point", "coordinates": [ -0.737994899998156, 38.078773600916222, 0.0 ] } },
{ "type": "Feature", "properties": { "SECTOR": "Medios", "SUBSECTOR": "Publicidad y marketing", "FASE": 2007.0, "MUNICIPIO": "Benijófar", "NOMBEMPRES": "Bienes Y Publicidad Sl", "CFORM": 0, "CPROD": 1, "CCONS": 0, "CDIFU": 0, "CTOTAL": 1 }, "geometry": { "type": "Point", "coordinates": [ -0.738800099998161, 38.073666500916218, 0.0 ] } },
{ "type": "Feature", "properties": { "SECTOR": "Medios", "SUBSECTOR": "Cine", "FASE": 1989.0, "MUNICIPIO": "Callosa de Segura", "NOMBEMPRES": "Audiovisuales Kron Cine Sl", "CFORM": 0, "CPROD": 1, "CCONS": 0, "CDIFU": 0, "CTOTAL": 1 }, "geometry": { "type": "Point", "coordinates": [ -0.879048199998811, 38.119846300916571, 0.0 ] } },
{ "type": "Feature", "properties": { "SECTOR": "Medios", "SUBSECTOR": "Televisión", "FASE": 1990.0, "MUNICIPIO": "Callosa de Segura", "NOMBEMPRES": "Redfibra Comunicaciones Sl.", "CFORM": 0, "CPROD": 0, "CCONS": 1, "CDIFU": 0, "CTOTAL": 1 }, "geometry": { "type": "Point", "coordinates": [ -0.877277299998809, 38.126859900916621, 0.0 ] } },
{ "type": "Feature", "properties": { "SECTOR": "Medios", "SUBSECTOR": "Internet", "FASE": 2017.0, "MUNICIPIO": "Callosa de Segura", "NOMBEMPRES": "Sistemarayos 2017 Sl.", "CFORM": 0, "CPROD": 1, "CCONS": 0, "CDIFU": 0, "CTOTAL": 1 }, "geometry": { "type": "Point", "coordinates": [ -0.876525999998815, 38.127015100916623, 0.0 ] } },
{ "type": "Feature", "properties": { "SECTOR": "Medios", "SUBSECTOR": "Publicidad y marketing", "FASE": 2015.0, "MUNICIPIO": "Catral", "NOMBEMPRES": "Adafor Marketing Global Sl.", "CFORM": 1, "CPROD": 0, "CCONS": 1, "CDIFU": 0, "CTOTAL": 2 }, "geometry": { "type": "Point", "coordinates": [ -0.805639499998496, 38.158045600916864, 0.0 ] } },
{ "type": "Feature", "properties": { "SECTOR": "Medios", "SUBSECTOR": "Televisión", "FASE": 1987.0, "MUNICIPIO": "Cox", "NOMBEMPRES": "Telecolor Cox C.b.", "CFORM": 0, "CPROD": 1, "CCONS": 0, "CDIFU": 0, "CTOTAL": 1 }, "geometry": { "type": "Point", "coordinates": [ -0.88792769999888, 38.142236900916743, 0.0 ] } },
{ "type": "Feature", "properties": { "SECTOR": "Medios", "SUBSECTOR": "Publicidad y marketing", "FASE": 2015.0, "MUNICIPIO": "Cox", "NOMBEMPRES": "Fundacion Rene Quinton", "CFORM": 0, "CPROD": 1, "CCONS": 0, "CDIFU": 0, "CTOTAL": 1 }, "geometry": { "type": "Point", "coordinates": [ -0.89383169999889, 38.163506100916905, 0.0 ] } },
{ "type": "Feature", "properties": { "SECTOR": "Medios", "SUBSECTOR": "Publicidad y marketing", "FASE": 2009.0, "MUNICIPIO": "Cox", "NOMBEMPRES": "Ele Azafatas S.c.", "CFORM": 0, "CPROD": 1, "CCONS": 0, "CDIFU": 0, "CTOTAL": 1 }, "geometry": { "type": "Point", "coordinates": [ -0.887892599998832, 38.141673500916717, 0.0 ] } },
{ "type": "Feature", "properties": { "SECTOR": "Medios", "SUBSECTOR": "Publicidad y marketing", "FASE": 2017.0, "MUNICIPIO": "Cox", "NOMBEMPRES": "Esuma Marketing Experience Sl.", "CFORM": 1, "CPROD": 0, "CCONS": 0, "CDIFU": 1, "CTOTAL": 2 }, "geometry": { "type": "Point", "coordinates": [ -0.891032299998864, 38.142446300916752, 0.0 ] } },
{ "type": "Feature", "properties": { "SECTOR": "Medios", "SUBSECTOR": "Publicidad y marketing", "FASE": 2005.0, "MUNICIPIO": "Daya Vieja", "NOMBEMPRES": "Servicio Integral De Relaciones Comerciales S.l.", "CFORM": 1, "CPROD": 0, "CCONS": 0, "CDIFU": 0, "CTOTAL": 1 }, "geometry": { "type": "Point", "coordinates": [ -0.736966299998169, 38.104506900916462, 0.0 ] } },
{ "type": "Feature", "properties": { "SECTOR": "Medios", "SUBSECTOR": "Publicidad y marketing", "FASE": 2007.0, "MUNICIPIO": "Dolores", "NOMBEMPRES": "Alterego Comunicacion Sl", "CFORM": 0, "CPROD": 1, "CCONS": 0, "CDIFU": 0, "CTOTAL": 1 }, "geometry": { "type": "Point", "coordinates": [ -0.772100099998339, 38.140005100916717, 0.0 ] } },
{ "type": "Feature", "properties": { "SECTOR": "Medios", "SUBSECTOR": "Internet", "FASE": 2011.0, "MUNICIPIO": "Guardamar del Segura", "NOMBEMPRES": "Wini Network Sl.", "CFORM": 0, "CPROD": 1, "CCONS": 0, "CDIFU": 0, "CTOTAL": 1 }, "geometry": { "type": "Point", "coordinates": [ -0.654572599997647, 38.083539800916256, 0.0 ] } },
{ "type": "Feature", "properties": { "SECTOR": "Medios", "SUBSECTOR": "Cine", "FASE": 2010.0, "MUNICIPIO": "Guardamar del Segura", "NOMBEMPRES": "Led Light Producciones Sl", "CFORM": 0, "CPROD": 1, "CCONS": 1, "CDIFU": 1, "CTOTAL": 3 }, "geometry": { "type": "Point", "coordinates": [ -0.653831499997674, 38.087164900916314, 0.0 ] } },
{ "type": "Feature", "properties": { "SECTOR": "Medios", "SUBSECTOR": "Radio", "FASE": 2007.0, "MUNICIPIO": "Guardamar del Segura", "NOMBEMPRES": "Hernapolis Comunicacion Y Servicios Sl", "CFORM": 0, "CPROD": 1, "CCONS": 0, "CDIFU": 1, "CTOTAL": 2 }, "geometry": { "type": "Point", "coordinates": [ -0.654634599997662, 38.083552800916294, 0.0 ] } },
{ "type": "Feature", "properties": { "SECTOR": "Medios", "SUBSECTOR": "Publicidad y marketing", "FASE": 2012.0, "MUNICIPIO": "Guardamar del Segura", "NOMBEMPRES": "Harmonic Networks C.b.", "CFORM": 0, "CPROD": 1, "CCONS": 0, "CDIFU": 0, "CTOTAL": 1 }, "geometry": { "type": "Point", "coordinates": [ -0.684795399997834, 38.059821000916102, 0.0 ] } },
{ "type": "Feature", "properties": { "SECTOR": "Medios", "SUBSECTOR": "Publicidad y marketing", "FASE": 2015.0, "MUNICIPIO": "Guardamar del Segura", "NOMBEMPRES": "Costa Blanca Finance & Trading Sl.", "CFORM": 0, "CPROD": 1, "CCONS": 1, "CDIFU": 0, "CTOTAL": 2 }, "geometry": { "type": "Point", "coordinates": [ -0.654972399997676, 38.090997500916359, 0.0 ] } },
{ "type": "Feature", "properties": { "SECTOR": "Medios", "SUBSECTOR": "Radio", "FASE": 2004.0, "MUNICIPIO": "Los Montesinos", "NOMBEMPRES": "Sol Advertising S.l.", "CFORM": 0, "CPROD": 1, "CCONS": 0, "CDIFU": 0, "CTOTAL": 1 }, "geometry": { "type": "Point", "coordinates": [ -0.744854799998182, 38.025278300915794, 0.0 ] } },
{ "type": "Feature", "properties": { "SECTOR": "Medios", "SUBSECTOR": "Publicidad y marketing", "FASE": 2000.0, "MUNICIPIO": "Los Montesinos", "NOMBEMPRES": "Consulting Integral De Marca Levante S.l.", "CFORM": 0, "CPROD": 1, "CCONS": 0, "CDIFU": 0, "CTOTAL": 1 }, "geometry": { "type": "Point", "coordinates": [ -0.743888899998194, 38.029734200915875, 0.0 ] } },
{ "type": "Feature", "properties": { "SECTOR": "Medios", "SUBSECTOR": "Cine", "FASE": 2015.0, "MUNICIPIO": "Orihuela", "NOMBEMPRES": "Estudios Morgana Films Sl.", "CFORM": 0, "CPROD": 1, "CCONS": 0, "CDIFU": 0, "CTOTAL": 1 }, "geometry": { "type": "Point", "coordinates": [ -0.945607899999062, 38.085980400916291, 0.0 ] } },
{ "type": "Feature", "properties": { "SECTOR": "Medios", "SUBSECTOR": "Cine", "FASE": 1988.0, "MUNICIPIO": "Orihuela", "NOMBEMPRES": "Rueda Y Albarracin Sc", "CFORM": 0, "CPROD": 0, "CCONS": 1, "CDIFU": 1, "CTOTAL": 2 }, "geometry": { "type": "Point", "coordinates": [ -0.945715199999029, 38.082246400916254, 0.0 ] } },
{ "type": "Feature", "properties": { "SECTOR": "Medios", "SUBSECTOR": "Televisión", "FASE": 2014.0, "MUNICIPIO": "Orihuela", "NOMBEMPRES": "Nyholm Golf Sl.", "CFORM": 0, "CPROD": 1, "CCONS": 0, "CDIFU": 1, "CTOTAL": 2 }, "geometry": { "type": "Point", "coordinates": [ -0.792292899998437, 37.935308700915122, 0.0 ] } },
{ "type": "Feature", "properties": { "SECTOR": "Medios", "SUBSECTOR": "Radio", "FASE": 1987.0, "MUNICIPIO": "Orihuela", "NOMBEMPRES": "Radio Television Vega Baja S L", "CFORM": 0, "CPROD": 1, "CCONS": 0, "CDIFU": 0, "CTOTAL": 1 }, "geometry": { "type": "Point", "coordinates": [ -0.945583799999044, 38.083804800916269, 0.0 ] } },
{ "type": "Feature", "properties": { "SECTOR": "Medios", "SUBSECTOR": "Radio", "FASE": 2003.0, "MUNICIPIO": "Orihuela", "NOMBEMPRES": "Emisoras Mediterranea Sl", "CFORM": 0, "CPROD": 1, "CCONS": 0, "CDIFU": 0, "CTOTAL": 1 }, "geometry": { "type": "Point", "coordinates": [ -0.768100799998323, 37.932967100915072, 0.0 ] } },
{ "type": "Feature", "properties": { "SECTOR": "Medios", "SUBSECTOR": "Radio", "FASE": 2001.0, "MUNICIPIO": "Orihuela", "NOMBEMPRES": "Onda Costa Sl", "CFORM": 0, "CPROD": 1, "CCONS": 0, "CDIFU": 0, "CTOTAL": 1 }, "geometry": { "type": "Point", "coordinates": [ -0.946193199999019, 38.084860600916322, 0.0 ] } },
{ "type": "Feature", "properties": { "SECTOR": "Medios", "SUBSECTOR": "Radio", "FASE": 2012.0, "MUNICIPIO": "Orihuela", "NOMBEMPRES": "Radio Vega Comunicacion Sl.", "CFORM": 0, "CPROD": 1, "CCONS": 0, "CDIFU": 0, "CTOTAL": 1 }, "geometry": { "type": "Point", "coordinates": [ -0.946922699999055, 38.077309400916242, 0.0 ] } },
{ "type": "Feature", "properties": { "SECTOR": "Medios", "SUBSECTOR": "Televisión", "FASE": 1986.0, "MUNICIPIO": "Orihuela", "NOMBEMPRES": "Torre Satelit Tv Sociedad Anonima", "CFORM": 0, "CPROD": 0, "CCONS": 1, "CDIFU": 0, "CTOTAL": 1 }, "geometry": { "type": "Point", "coordinates": [ -0.725210699998068, 37.931865000915089, 0.0 ] } },
{ "type": "Feature", "properties": { "SECTOR": "Medios", "SUBSECTOR": "Televisión", "FASE": 1998.0, "MUNICIPIO": "Orihuela", "NOMBEMPRES": "Tv Orihuela S.l.", "CFORM": 0, "CPROD": 0, "CCONS": 1, "CDIFU": 0, "CTOTAL": 1 }, "geometry": { "type": "Point", "coordinates": [ -0.929228199998997, 38.108115300916481, 0.0 ] } },
{ "type": "Feature", "properties": { "SECTOR": "Medios", "SUBSECTOR": "Televisión", "FASE": 2017.0, "MUNICIPIO": "Orihuela", "NOMBEMPRES": "Union De Redes De Fibra Optica Sl", "CFORM": 0, "CPROD": 0, "CCONS": 1, "CDIFU": 0, "CTOTAL": 1 }, "geometry": { "type": "Point", "coordinates": [ -0.944525399999063, 38.080040800916294, 0.0 ] } },
{ "type": "Feature", "properties": { "SECTOR": "Medios", "SUBSECTOR": "Televisión", "FASE": 2005.0, "MUNICIPIO": "Orihuela", "NOMBEMPRES": "Tele Orihuela Producciones S.l.", "CFORM": 0, "CPROD": 1, "CCONS": 1, "CDIFU": 0, "CTOTAL": 2 }, "geometry": { "type": "Point", "coordinates": [ -0.949862899999075, 38.086691700916347, 0.0 ] } },
{ "type": "Feature", "properties": { "SECTOR": "Medios", "SUBSECTOR": "Internet", "FASE": 2014.0, "MUNICIPIO": "Orihuela", "NOMBEMPRES": "Media-netshop Sl.", "CFORM": 0, "CPROD": 1, "CCONS": 1, "CDIFU": 0, "CTOTAL": 2 }, "geometry": { "type": "Point", "coordinates": [ -0.75154329999826, 37.921797200915023, 0.0 ] } },
{ "type": "Feature", "properties": { "SECTOR": "Medios", "SUBSECTOR": "Internet", "FASE": 2018.0, "MUNICIPIO": "Orihuela", "NOMBEMPRES": "Gestion Y Desarrollo Web Treze Sl.", "CFORM": 1, "CPROD": 1, "CCONS": 1, "CDIFU": 0, "CTOTAL": 3 }, "geometry": { "type": "Point", "coordinates": [ -0.951167399999082, 38.081483700916259, 0.0 ] } },
{ "type": "Feature", "properties": { "SECTOR": "Medios", "SUBSECTOR": "Internet", "FASE": 2017.0, "MUNICIPIO": "Orihuela", "NOMBEMPRES": "Solmar Web Management Sl.", "CFORM": 0, "CPROD": 1, "CCONS": 0, "CDIFU": 0, "CTOTAL": 1 }, "geometry": { "type": "Point", "coordinates": [ -0.934181999999021, 38.101051200916402, 0.0 ] } },
{ "type": "Feature", "properties": { "SECTOR": "Medios", "SUBSECTOR": "Internet", "FASE": 2014.0, "MUNICIPIO": "Orihuela", "NOMBEMPRES": "Lunwer Team Sl.", "CFORM": 0, "CPROD": 1, "CCONS": 0, "CDIFU": 0, "CTOTAL": 1 }, "geometry": { "type": "Point", "coordinates": [ -0.747741899998197, 37.950069700915215, 0.0 ] } },
{ "type": "Feature", "properties": { "SECTOR": "Medios", "SUBSECTOR": "Publicidad y marketing", "FASE": 2009.0, "MUNICIPIO": "Orihuela", "NOMBEMPRES": "1. Call C.b.", "CFORM": 0, "CPROD": 1, "CCONS": 0, "CDIFU": 0, "CTOTAL": 1 }, "geometry": { "type": "Point", "coordinates": [ -0.766642299998304, 37.941971300915149, 0.0 ] } },
{ "type": "Feature", "properties": { "SECTOR": "Medios", "SUBSECTOR": "Publicidad y marketing", "FASE": 2014.0, "MUNICIPIO": "Orihuela", "NOMBEMPRES": "Effective Advertising D&d Sl.", "CFORM": 0, "CPROD": 1, "CCONS": 0, "CDIFU": 0, "CTOTAL": 1 }, "geometry": { "type": "Point", "coordinates": [ -0.719461399998045, 37.939198000915134, 0.0 ] } },
{ "type": "Feature", "properties": { "SECTOR": "Medios", "SUBSECTOR": "Publicidad y marketing", "FASE": 2017.0, "MUNICIPIO": "Orihuela", "NOMBEMPRES": "Enomarketing Sl.", "CFORM": 1, "CPROD": 0, "CCONS": 0, "CDIFU": 0, "CTOTAL": 1 }, "geometry": { "type": "Point", "coordinates": [ -0.860130499998763, 38.093828400916365, 0.0 ] } },
{ "type": "Feature", "properties": { "SECTOR": "Medios", "SUBSECTOR": "Publicidad y marketing", "FASE": 2016.0, "MUNICIPIO": "Orihuela", "NOMBEMPRES": "Multimediastream Sl.", "CFORM": 0, "CPROD": 1, "CCONS": 0, "CDIFU": 0, "CTOTAL": 1 }, "geometry": { "type": "Point", "coordinates": [ -0.732016599998123, 37.919584600915002, 0.0 ] } },
{ "type": "Feature", "properties": { "SECTOR": "Medios", "SUBSECTOR": "Publicidad y marketing", "FASE": 2018.0, "MUNICIPIO": "Orihuela", "NOMBEMPRES": "Solutions Brilliant Europa Sl.", "CFORM": 0, "CPROD": 1, "CCONS": 0, "CDIFU": 0, "CTOTAL": 1 }, "geometry": { "type": "Point", "coordinates": [ -0.754075199998225, 37.933306700915111, 0.0 ] } },
{ "type": "Feature", "properties": { "SECTOR": "Medios", "SUBSECTOR": "Publicidad y marketing", "FASE": 2018.0, "MUNICIPIO": "Orihuela", "NOMBEMPRES": "Euronover 17 Sl.", "CFORM": 0, "CPROD": 1, "CCONS": 0, "CDIFU": 0, "CTOTAL": 1 }, "geometry": { "type": "Point", "coordinates": [ -0.945031099999027, 38.078762800916245, 0.0 ] } },
{ "type": "Feature", "properties": { "SECTOR": "Medios", "SUBSECTOR": "Publicidad y marketing", "FASE": 2016.0, "MUNICIPIO": "Orihuela", "NOMBEMPRES": "Estrategias Del Departamento Creativo Sl.", "CFORM": 0, "CPROD": 1, "CCONS": 0, "CDIFU": 0, "CTOTAL": 1 }, "geometry": { "type": "Point", "coordinates": [ -0.945475299999032, 38.081194400916289, 0.0 ] } },
{ "type": "Feature", "properties": { "SECTOR": "Medios", "SUBSECTOR": "Publicidad y marketing", "FASE": 2016.0, "MUNICIPIO": "Orihuela", "NOMBEMPRES": "Multimediastream Sl.", "CFORM": 0, "CPROD": 1, "CCONS": 1, "CDIFU": 0, "CTOTAL": 2 }, "geometry": { "type": "Point", "coordinates": [ -0.732028099998152, 37.919554800915002, 0.0 ] } },
{ "type": "Feature", "properties": { "SECTOR": "Medios", "SUBSECTOR": "Publicidad y marketing", "FASE": 2016.0, "MUNICIPIO": "Orihuela", "NOMBEMPRES": "Happy Few Communication", "CFORM": 0, "CPROD": 1, "CCONS": 0, "CDIFU": 0, "CTOTAL": 1 }, "geometry": { "type": "Point", "coordinates": [ -0.722488199998047, 37.926505700915044, 0.0 ] } },
{ "type": "Feature", "properties": { "SECTOR": "Medios", "SUBSECTOR": "Publicidad y marketing", "FASE": 2018.0, "MUNICIPIO": "Orihuela", "NOMBEMPRES": "Victoria Constant Sl.", "CFORM": 0, "CPROD": 1, "CCONS": 0, "CDIFU": 0, "CTOTAL": 1 }, "geometry": { "type": "Point", "coordinates": [ -0.733784099998162, 37.921832700914983, 0.0 ] } },
{ "type": "Feature", "properties": { "SECTOR": "Medios", "SUBSECTOR": "Publicidad y marketing", "FASE": 2003.0, "MUNICIPIO": "Orihuela", "NOMBEMPRES": "Youropendoor Sl", "CFORM": 0, "CPROD": 1, "CCONS": 0, "CDIFU": 0, "CTOTAL": 1 }, "geometry": { "type": "Point", "coordinates": [ -0.72778439999811, 37.928185600915072, 0.0 ] } },
{ "type": "Feature", "properties": { "SECTOR": "Medios", "SUBSECTOR": "Publicidad y marketing", "FASE": 1995.0, "MUNICIPIO": "Orihuela", "NOMBEMPRES": "Albaalex Sl", "CFORM": 0, "CPROD": 1, "CCONS": 0, "CDIFU": 0, "CTOTAL": 1 }, "geometry": { "type": "Point", "coordinates": [ -0.944053399999059, 38.084416600916285, 0.0 ] } },
{ "type": "Feature", "properties": { "SECTOR": "Medios", "SUBSECTOR": "Publicidad y marketing", "FASE": 2006.0, "MUNICIPIO": "Orihuela", "NOMBEMPRES": "Orihuela Digital Sl.", "CFORM": 0, "CPROD": 1, "CCONS": 0, "CDIFU": 0, "CTOTAL": 1 },